,"TIMESTAMP","RECORD","rmcid","rmcutc","rmcstatus","rmclatitude","rmcin_s_ind","rmclongitude","rmce_w_indicator","rmcspeed","rmccourse","rmcutcdate","rmcmagvariation","rmcmage_w","rmcchecksum","HMR3000string","compass_mode","compass_heading","compass_headingstat","compass_pitch","compass_pitchstat","compass_roll","compass_rollstat","compass_checksum","Gill_Adr","Gill_Diag","u","v","w","Ts","AirTC_Min","AirTC_Max","AirTC_Avg","RH_Min","RH_Max","RH_Avg","CPC_aux","LiveBin_1dM","LiveBin_2dM","LiveBin_3dM","LiveBin_4dM","LiveBin_5dM","LiveBin_6dM","LiveBin_7dM","LiveBin_8dM","LiveBin_9dM","LiveBin_10dM","LiveBin_11dM","LiveBin_12dM","LiveBin_13dM","LiveBin_14dM","LiveBin_15dM","LiveBin_16dM","CO2","H2O","P_LI75","diag_LI75","wind.speed","south","a","wind.direction","lon","lat""1",2019-12-19 14:06:30,62741,"GPRMC",130624,"A",5157.87734,"N",736.3392,"E",0.09,0,191219,2,"E","52","PTNTHPR,,N,,P,8.6,N*24","PTNTHPR",NA,"N",NA,"P",8.6,"N","24",2,38,-0.02,0.05,0.13,14.45,12.44,12.44,12.44,69.52,69.52,69.52,8175.79,0,0,0,0,0,0,0,0,0,0,0,0,0,0,0,0,19.7121,395.5464,100.1293,247,0.0288,0.0263,117.744370169483,117.744370169483,7.60565333333333,51.9646223333333"2",2019-12-19 14:06:31,62742,"GPRMC",130625,"A",5157.87734,"N",736.3392,"E",0.05,0,191219,2,"E","5F","PTNTHPR,,N,,P,8.6,N*24","PTNTHPR",NA,"N",NA,"P",8.6,"N","24",4,0,0.08,0.02,0.14,14.71,12.43,12.43,12.43,69.57,69.57,69.57,8345.946,0,0,0,0,0,0,0,0,0,0,0,0,0,0,0,0,19.68386,395.8611,100.1293,247,0.106122222222222,0.105722222222222,169.28766259347,169.28766259347,7.60565333333333,51.9646223333333"3",2019-12-19 14:06:32,62743,"GPRMC",130626,"A",5157.87733,"N",736.33919,"E",0.05,0,191219,2,"E","51","PTNTHPR,,N,,P,8.6,N*24","PTNTHPR",NA,"N",NA,"P",8.6,"N","24",6,1,0.09,-0.01,0.08,14.96,12.45,12.45,12.45,69.63,69.63,69.63,8516.104,0,0,0,0,0,0,0,0,0,0,0,0,0,0,0,0,19.75718,395.2981,100.1131,247,0.115822222222222,0.115722222222222,184.938878474422,184.938878474422,7.60565316666667,51.9646221666667"4",2019-12-19 14:06:33,62744,"GPRMC",130627,"A",5157.87732,"N",736.33918,"E",0.07,0,191219,2,"E","52","PTNTHPR,,N,,P,8.5,N*27","PTNTHPR",NA,"N",NA,"P",8.5,"N","27",2,38,0.07,0.1,0.12,14.23,12.45,12.45,12.45,69.59,69.59,69.59,8403.767,0,0,0,0,0,0,0,0,0,0,0,0,0,0,0,0,19.80388,394.5953,100.1293,247,0.116011111111111,0.106011111111111,136.671335114831,136.671335114831,7.605653,51.964622"5",2019-12-19 14:06:34,62745,"GPRMC",130628,"A",5157.87732,"N",736.33917,"E",0.06,0,191219,2,"E","53","PTNTHPR,,N,,P,8.6,N*24","PTNTHPR",NA,"N",NA,"P",8.6,"N","24",4,0,0.01,-0.01,0.18,15.43,12.47,12.47,12.47,69.63,69.63,69.63,8342.643,0,0,0,0,0,0,0,0,0,0,0,0,0,0,0,0,19.93559,392.4459,100.1293,247,0.0409666666666667,0.0408666666666667,193.749987151148,193.749987151148,7.60565283333333,51.964622"6",2019-12-19 14:06:35,62746,"GPRMC",130629,"A",5157.87731,"N",736.33917,"E",0.08,0,191219,2,"E","5F","PTNTHPR,,N,,P,8.6,N*24","PTNTHPR",NA,"N",NA,"P",8.6,"N","24",6,1,0.1,0,0.17,14.86,12.44,12.44,12.44,69.6,69.6,69.6,8210.481,0,0,0,0,0,0,0,0,0,0,0,0,0,0,0,0,19.78764,394.7717,100.0934,247,0.141155555555556,0.141155555555556,180,180,7.60565283333333,51.9646218333333"7",2019-12-19 14:06:36,62747,"GPRMC",130630,"A",5157.87731,"N",736.33916,"E",0.07,0,191219,2,"E","59","PTNTHPR,,N,,P,8.5,N*27","PTNTHPR",NA,"N",NA,"P",8.5,"N","27",2,38,0.05,0.02,0.13,14.84,12.43,12.43,12.43,69.67,69.67,69.67,8291.431,0,0,0,0,0,0,0,0,0,0,0,0,0,0,0,0,19.84134,394.3149,100.1391,247,0.0864111111111111,0.0860111111111111,166.909739931424,166.909739931424,7.60565266666667,51.9646218333333"8",2019-12-19 14:06:37,62748,"GPRMC",130631,"A",5157.87732,"N",736.33916,"E",0.06,0,191219,2,"E","5A","PTNTHPR,,N,,P,8.6,N*24","PTNTHPR",NA,"N",NA,"P",8.6,"N","24",4,0,0.01,0.03,0.08,14.33,12.43,12.43,12.43,69.67,69.67,69.67,8274.91,0,0,0,0,0,0,0,0,0,0,0,0,0,0,0,0,19.91111,393.3817,100.1131,247,0.0417666666666667,0.0408666666666667,143.717808043831,143.717808043831,7.60565266666667,51.964622"9",2019-12-19 14:06:38,62749,"GPRMC",130632,"A",5157.87733,"N",736.33917,"E",0.12,0,191219,2,"E","5C","PTNTHPR,,N,,P,8.6,N*24","PTNTHPR",NA,"N",NA,"P",8.6,"N","24",6,1,0.12,-0.13,0.16,15.14,12.44,12.44,12.44,69.69,69.69,69.69,8317.862,0,0,0,0,0,0,0,0,0,0,0,0,0,0,0,0,19.86563,393.8441,100.0835,247,0.198633333333333,0.181733333333333,215.577422360734,215.577422360734,7.60565283333333,51.9646221666667"10",2019-12-19 14:06:39,62750,"GPRMC",130633,"A",5157.87734,"N",736.3392,"E",0.1,0,191219,2,"E","5C","PTNTHPR,,N,,P,8.6,N*24","PTNTHPR",NA,"N",NA,"P",8.6,"N","24",2,38,0.11,0.04,0.27,15.44,12.44,12.44,12.44,69.67,69.67,69.67,8630.092,0,0,0,0,0,0,0,0,0,0,0,0,0,0,0,0,19.65937,396.2891,100.1293,247,0.163044444444444,0.161444444444444,166.084437677923,166.084437677923,7.60565333333333,51.9646223333333"11",2019-12-19 14:06:40,62751,"GPRMC",130634,"A",5157.87736,"N",736.33923,"E",0.09,0,191219,2,"E","52","PTNTHPR,,N,,P,8.6,N*24","PTNTHPR",NA,"N",NA,"P",8.6,"N","24",4,0,-0.06,0.08,0.19,15.04,12.44,12.44,12.44,69.68,69.68,69.68,8170.833,0,0,0,0,0,0,0,0,0,0,0,0,0,0,0,0,19.9882,392.5057,100.1131,247,0.0201,-0.0137,80.2823610396986,80.2823610396986,7.60565383333333,51.9646226666667"12",2019-12-19 14:06:41,62752,"GPRMC",130635,"A",5157.87736,"N",736.33925,"E",0.11,0,191219,2,"E","5C","PTNTHPR,,N,,P,8.6,N*24","PTNTHPR",NA,"N",NA,"P",8.6,"N","24",6,1,0.13,0.02,0.15,15.17,12.42,12.42,12.42,69.7,69.7,69.7,8046.933,0,0,0,0,0,0,0,0,0,0,0,0,0,0,0,0,19.8919,393.3633,100.1293,247,0.186988888888889,0.186588888888889,173.881966574065,173.881966574065,7.60565416666667,51.9646226666667"13",2019-12-19 14:06:42,62753,"GPRMC",130636,"A",5157.87737,"N",736.33927,"E",0.08,0,191219,2,"E","54","PTNTHPR,,N,,P,8.6,N*24","PTNTHPR",NA,"N",NA,"P",8.6,"N","24",2,38,-0.04,0.11,0.07,14.59,12.45,12.45,12.45,69.69,69.69,69.69,8109.709,0,0,0,0,0,0,0,0,0,0,0,0,0,0,0,0,19.88537,393.3279,100.1293,247,0.0132555555555556,0.00115555555555556,90.6018729180495,90.6018729180495,7.6056545,51.9646228333333"14",2019-12-19 14:06:43,62754,"GPRMC",130637,"A",5157.87739,"N",736.33928,"E",0.11,0,191219,2,"E","5C","PTNTHPR,,N,,P,8.6,N*24","PTNTHPR",NA,"N",NA,"P",8.6,"N","24",4,0,0.09,0.08,0.16,14.95,12.43,12.43,12.43,69.65,69.65,69.65,7880.08,0,0,0,0,0,0,0,0,0,0,0,0,0,0,0,0,19.82555,394.2623,100.1293,247,0.152988888888889,0.146588888888889,151.37676216727,151.37676216727,7.60565466666667,51.9646231666667"15",2019-12-19 14:06:44,62755,"GPRMC",130638,"A",5157.8774,"N",736.3393,"E",0.15,0,191219,2,"E","50","PTNTHPR,,N,,P,8.6,N*24","PTNTHPR",NA,"N",NA,"P",8.6,"N","24",6,1,0.04,-0.07,0.21,15.26,12.44,12.44,12.44,69.65,69.65,69.65,7709.923,0,0,0,0,0,0,0,0,0,0,0,0,0,0,0,0,19.72048,395.8247,100.0934,247,0.122066666666667,0.117166666666667,210.8557646148,210.8557646148,7.605655,51.9646233333333"16",2019-12-19 14:06:45,62756,"GPRMC",130639,"A",5157.87743,"N",736.33933,"E",0.13,0,191219,2,"E","57","PTNTHPR,,N,,P,8.6,N*24","PTNTHPR",NA,"N",NA,"P",8.6,"N","24",2,38,0.02,0.11,0.1,14.5,12.43,12.43,12.43,69.66,69.66,69.66,8144.401,0,0,0,0,0,0,0,0,0,0,0,0,0,0,0,0,19.89296,394.1539,100.1293,247,0.0989777777777778,0.0868777777777778,128.301607901393,128.301607901393,7.6056555,51.9646238333333"17",2019-12-19 14:06:46,62757,"GPRMC",130640,"A",5157.87745,"N",736.33937,"E",0.09,0,191219,2,"E","50","PTNTHPR,,N,,P,8.5,N*27","PTNTHPR",NA,"N",NA,"P",8.5,"N","27",4,0,0.08,0.07,0.12,14.98,12.44,12.44,12.44,69.67,69.67,69.67,7703.315,0,0,0,0,0,0,0,0,0,0,0,0,0,0,0,0,19.95049,393.3957,100.1131,247,0.1312,0.1263,151.003204228162,151.003204228162,7.60565616666667,51.9646241666667"18",2019-12-19 14:06:47,62758,"GPRMC",130641,"A",5157.87745,"N",736.33937,"E",0.07,0,191219,2,"E","5F","PTNTHPR,,N,,P,8.5,N*27","PTNTHPR",NA,"N",NA,"P",8.5,"N","27",6,1,-0.02,0.13,0.12,14.56,12.44,12.44,12.44,69.63,69.63,69.63,7794.176,0,0,0,0,0,0,0,0,0,0,0,0,0,0,0,0,19.89905,393.7913,100.1553,247,0.0329111111111111,0.0160111111111111,97.0213256962629,97.0213256962629,7.60565616666667,51.9646241666667"19",2019-12-19 14:06:48,62759,"GPRMC",130642,"A",5157.87746,"N",736.3394,"E",0.16,0,191219,2,"E","5F","PTNTHPR,,N,,P,8.6,N*24","PTNTHPR",NA,"N",NA,"P",8.6,"N","24",2,38,0.02,0,0.15,15.08,12.44,12.44,12.44,69.59,69.59,69.59,7377.87,0,0,0,0,0,0,0,0,0,0,0,0,0,0,0,0,19.91619,393.2803,100.1293,247,0.102311111111111,0.102311111111111,180,180,7.60565666666667,51.9646243333333"20",2019-12-19 14:06:49,62760,"GPRMC",130643,"A",5157.87748,"N",736.33943,"E",0.07,0,191219,2,"E","53","PTNTHPR,,N,,P,8.6,N*24","PTNTHPR",NA,"N",NA,"P",8.6,"N","24",4,0,0.08,0.07,0.19,15.21,12.44,12.44,12.44,69.57,69.57,69.57,7528.202,0,0,0,0,0,0,0,0,0,0,0,0,0,0,0,0,20.00821,392.3755,100.0934,247,0.120911111111111,0.116011111111111,148.893618729484,148.893618729484,7.60565716666667,51.9646246666667"21",2019-12-19 14:06:50,62761,"GPRMC",130644,"A",5157.87749,"N",736.33944,"E",0.07,0,191219,2,"E","52","PTNTHPR,,N,,P,8.5,N*27","PTNTHPR",NA,"N",NA,"P",8.5,"N","27",6,1,0.04,0.01,0.14,14.91,12.44,12.44,12.44,69.57,69.57,69.57,7518.291,0,0,0,0,0,0,0,0,0,0,0,0,0,0,0,0,19.81811,394.5746,100.1391,247,0.0761111111111111,0.0760111111111111,172.505225628303,172.505225628303,7.60565733333333,51.9646248333333
"22",2019-12-19 14:06:51,62762,"GPRMC",130645,"A",5157.87751,"N",736.33947,"E",0.05,0,191219,2,"E","5B","PTNTHPR,,N,,P,8.6,N*24","PTNTHPR",NA,"N",NA,"P",8.6,"N","24",2,38,-0.02,0,0.09,14.36,12.42,12.42,12.42,69.53,69.53,69.53,7681.839,0,0,0,0,0,0,0,0,0,0,0,0,0,0,0,0,20.03281,392.9372,100.1293,247,0.00572222222222223,0.00572222222222223,180,180,7.60565783333333,51.9646251666667
"23",2019-12-19 14:06:52,62763,"GPRMC",130646,"A",5157.87752,"N",736.33951,"E",0.09,0,191219,2,"E","50","PTNTHPR,,N,,P,8.5,N*27","PTNTHPR",NA,"N",NA,"P",8.5,"N","27",4,0,0.08,0.02,0.13,14.79,12.44,12.44,12.44,69.45,69.45,69.45,7663.667,0,0,0,0,0,0,0,0,0,0,0,0,0,0,0,0,19.93201,393.4885,100.1293,247,0.1267,0.1263,171.001750198023,171.001750198023,7.6056585,51.9646253333333
"24",2019-12-19 14:06:53,62764,"GPRMC",130647,"A",5157.87754,"N",736.33954,"E",0.08,0,191219,2,"E","53","PTNTHPR,,N,,P,8.6,N*24","PTNTHPR",NA,"N",NA,"P",8.6,"N","24",6,1,0.03,0.06,0.12,14.79,12.42,12.42,12.42,69.39,69.39,69.39,7908.164,0,0,0,0,0,0,0,0,0,0,0,0,0,0,0,0,19.98776,393.1768,100.1293,247,0.0747555555555556,0.0711555555555556,139.861643517321,139.861643517321,7.605659,51.9646256666667
"25",2019-12-19 14:06:54,62765,"GPRMC",130648,"A",5157.87755,"N",736.33956,"E",0.07,0,191219,2,"E","50","PTNTHPR,,N,,P,8.5,N*27","PTNTHPR",NA,"N",NA,"P",8.5,"N","27",2,38,-0.09,0.05,0.03,14.38,12.42,12.42,12.42,69.33,69.33,69.33,7557.938,0,0,0,0,0,0,0,0,0,0,0,0,0,0,0,0,20.00071,393.4029,100.1293,247,0.0564888888888889,-0.0539888888888889,42.8032797029361,42.8032797029361,7.60565933333333,51.9646258333333
"26",2019-12-19 14:06:55,62766,"GPRMC",130649,"A",5157.87757,"N",736.3396,"E",0.12,0,191219,2,"E","52","PTNTHPR,,N,,P,8.6,N*24","PTNTHPR",NA,"N",NA,"P",8.6,"N","24",4,0,0.02,0.03,0.09,14.86,12.44,12.44,12.44,69.26,69.26,69.26,7582.719,0,0,0,0,0,0,0,0,0,0,0,0,0,0,0,0,20.04545,392.783,100.1293,247,0.0826333333333333,0.0817333333333333,159.844474408246,159.844474408246,7.60566,51.9646261666667
"27",2019-12-19 14:06:56,62767,"GPRMC",130650,"A",5157.87758,"N",736.33965,"E",0.07,0,191219,2,"E","54","PTNTHPR,,N,,P,8.6,N*24","PTNTHPR",NA,"N",NA,"P",8.6,"N","24",6,1,0.12,0.06,0.16,15.12,12.45,12.45,12.45,69.26,69.26,69.26,7391.085,0,0,0,0,0,0,0,0,0,0,0,0,0,0,0,0,20.03506,392.838,100.1293,247,0.159611111111111,0.156011111111111,158.963856200254,158.963856200254,7.60566083333333,51.9646263333333
"28",2019-12-19 14:06:57,62768,"GPRMC",130651,"A",5157.87758,"N",736.33966,"E",0.07,0,191219,2,"E","56","PTNTHPR,,N,,P,8.5,N*27","PTNTHPR",NA,"N",NA,"P",8.5,"N","27",2,38,0.03,-0.02,0.07,14.8,12.44,12.44,12.44,69.19,69.19,69.19,7637.235,0,0,0,0,0,0,0,0,0,0,0,0,0,0,0,0,20.10625,391.1463,100.1293,247,0.0664111111111111,0.0660111111111111,196.855722057789,196.855722057789,7.605661,51.9646263333333
"29",2019-12-19 14:06:58,62769,"GPRMC",130652,"A",5157.87758,"N",736.33966,"E",0.05,0,191219,2,"E","57","PTNTHPR,,N,,P,8.5,N*27","PTNTHPR",NA,"N",NA,"P",8.5,"N","27",4,0,-0.01,0.01,0.07,14.49,12.41,12.41,12.41,69.15,69.15,69.15,7427.43,0,0,0,0,0,0,0,0,0,0,0,0,0,0,0,0,20.00928,392.573,100.1553,247,0.0158222222222222,0.0157222222222222,147.54190987666,147.54190987666,7.605661,51.9646263333333
"30",2019-12-19 14:06:59,62770,"GPRMC",130653,"A",5157.87758,"N",736.33968,"E",0.08,0,191219,2,"E","55","PTNTHPR,,N,,P,8.6,N*24","PTNTHPR",NA,"N",NA,"P",8.6,"N","24",6,1,-0.03,0.05,0.07,14.64,12.46,12.46,12.46,69.11,69.11,69.11,7714.879,0,0,0,0,0,0,0,0,0,0,0,0,0,0,0,0,19.99199,393.0779,100.1293,247,0.0136555555555556,0.0111555555555556,102.577331459253,102.577331459253,7.60566133333333,51.9646263333333
"31",2019-12-19 14:07:00,62771,"GPRMC",130654,"A",5157.87757,"N",736.33967,"E",0.11,0,191219,2,"E","5A","PTNTHPR,,N,,P,8.6,N*24","PTNTHPR",NA,"N",NA,"P",8.6,"N","24",2,38,-0.05,0.05,0.08,14.25,12.43,12.43,12.43,69.04,69.04,69.04,7985.809,0,0,0,0,0,0,0,0,0,0,0,0,0,0,0,0,20.03054,392.8313,100.1293,247,0.00908888888888889,0.00658888888888889,97.5070556190857,97.5070556190857,7.60566116666667,51.9646261666667
"32",2019-12-19 14:07:01,62772,"GPRMC",130655,"A",5157.87756,"N",736.33965,"E",0.15,0,191219,2,"E","5C","PTNTHPR,,N,,P,8.5,N*27","PTNTHPR",NA,"N",NA,"P",8.5,"N","27",4,0,0.07,0,0.16,14.99,12.42,12.42,12.42,69.01,69.01,69.01,7828.868,0,0,0,0,0,0,0,0,0,0,0,0,0,0,0,0,20.01399,393.3471,100.1391,247,0.147166666666667,0.147166666666667,180,180,7.60566083333333,51.964626
"33",2019-12-19 14:07:02,62773,"GPRMC",130656,"A",5157.87754,"N",736.33963,"E",0.07,0,191219,2,"E","58","PTNTHPR,,N,,P,8.6,N*24","PTNTHPR",NA,"N",NA,"P",8.6,"N","24",6,1,0.09,0.1,0.16,15.07,12.41,12.41,12.41,68.96,68.96,68.96,7964.333,0,0,0,0,0,0,0,0,0,0,0,0,0,0,0,0,20.01569,393.6371,100.0934,247,0.136011111111111,0.126011111111111,141.565158647019,141.565158647019,7.6056605,51.9646256666667
"34",2019-12-19 14:07:03,62774,"GPRMC",130657,"A",5157.87753,"N",736.33962,"E",0.07,0,191219,2,"E","5F","PTNTHPR,,N,,P,8.6,N*24","PTNTHPR",NA,"N",NA,"P",8.6,"N","24",2,38,-0.07,0.08,0.08,14.67,12.43,12.43,12.43,68.93,68.93,68.93,7909.816,0,0,0,0,0,0,0,0,0,0,0,0,0,0,0,0,20.02243,393.4807,100.149,247,0.0403888888888889,-0.0339888888888889,66.9812486119075,66.9812486119075,7.60566033333333,51.9646255
"35",2019-12-19 14:07:04,62775,"GPRMC",130658,"A",5157.87752,"N",736.33964,"E",0.06,0,191219,2,"E","56","PTNTHPR,,N,,P,8.6,N*24","PTNTHPR",NA,"N",NA,"P",8.6,"N","24",4,0,-0.03,0.09,0.08,14.68,12.42,12.42,12.42,68.87,68.87,68.87,7822.26,0,0,0,0,0,0,0,0,0,0,0,0,0,0,0,0,20.00522,393.438,100.1293,247,0.00896666666666667,0.000866666666666668,90.5517200828487,90.5517200828487,7.60566066666667,51.9646253333333
"36",2019-12-19 14:07:05,62776,"GPRMC",130659,"A",5157.87751,"N",736.33965,"E",0.06,0,191219,2,"E","55","PTNTHPR,,N,,P,8.6,N*24","PTNTHPR",NA,"N",NA,"P",8.6,"N","24",6,1,-0.05,0.01,0.05,14.82,12.43,12.43,12.43,68.82,68.82,68.82,8251.745,0,0,0,0,0,0,0,0,0,0,0,0,0,0,0,0,19.94195,394.3696,100.1293,247,0.0192333333333333,-0.0191333333333333,27.5937322550451,27.5937322550451,7.60566083333333,51.9646251666667
"37",2019-12-19 14:07:06,62777,"GPRMC",130700,"A",5157.87749,"N",736.33964,"E",0.06,0,191219,2,"E","50","PTNTHPR,,N,,P,8.6,N*24","PTNTHPR",NA,"N",NA,"P",8.6,"N","24",2,38,0,0.04,0.05,14.67,12.44,12.44,12.44,68.77,68.77,68.77,7747.885,0,0,0,0,0,0,0,0,0,0,0,0,0,0,0,0,19.92918,394.3868,100.1391,247,0.0324666666666667,0.0308666666666667,127.656171993662,127.656171993662,7.60566066666667,51.9646248333333
"38",2019-12-19 14:07:07,62778,"GPRMC",130701,"A",5157.87746,"N",736.33961,"E",0.05,0,191219,2,"E","58","PTNTHPR,,N,,P,8.5,N*27","PTNTHPR",NA,"N",NA,"P",8.5,"N","27",4,0,-0.01,0.08,0.03,14.1,12.44,12.44,12.44,68.77,68.77,68.77,7795.793,0,0,0,0,0,0,0,0,0,0,0,0,0,0,0,0,20.01592,393.2973,100.1293,247,0.0221222222222222,0.0157222222222222,101.118513369575,101.118513369575,7.60566016666667,51.9646243333333
"39",2019-12-19 14:07:08,62779,"GPRMC",130702,"A",5157.87742,"N",736.33956,"E",0.07,0,191219,2,"E","59","PTNTHPR,,N,,P,8.6,N*24","PTNTHPR",NA,"N",NA,"P",8.6,"N","24",6,1,-0.01,0.11,0.04,14.05,12.41,12.41,12.41,68.75,68.75,68.75,8088.197,0,0,0,0,0,0,0,0,0,0,0,0,0,0,0,0,19.76794,395.4846,100.1131,247,0.0381111111111111,0.0260111111111111,103.304051435012,103.304051435012,7.60565933333333,51.9646236666667
"40",2019-12-19 14:07:09,62780,"GPRMC",130703,"A",5157.87739,"N",736.33949,"E",0.14,0,191219,2,"E","58","PTNTHPR,,N,,P,8.5,N*27","PTNTHPR",NA,"N",NA,"P",8.5,"N","27",2,38,0,0.09,0.05,14.06,12.41,12.41,12.41,68.66,68.66,68.66,7932.909,0,0,0,0,0,0,0,0,0,0,0,0,0,0,0,0,19.73345,395.5949,100.1293,247,0.0801222222222222,0.0720222222222222,128.66843349933,128.66843349933,7.60565816666667,51.9646231666667
"41",2019-12-19 14:07:10,62781,"GPRMC",130704,"A",5157.87736,"N",736.33944,"E",0.15,0,191219,2,"E","5C","PTNTHPR,,N,,P,8.6,N*24","PTNTHPR",NA,"N",NA,"P",8.6,"N","24",4,0,0.1,-0.02,0.29,14.08,12.42,12.42,12.42,68.6,68.6,68.6,8071.677,0,0,0,0,0,0,0,0,0,0,0,0,0,0,0,0,19.24699,410.5849,100.1194,247,0.177566666666667,0.177166666666667,186.440741684156,186.440741684156,7.60565733333333,51.9646226666667
"42",2019-12-19 14:07:11,62782,"GPRMC",130705,"A",5157.87732,"N",736.33937,"E",0.24,0,191219,2,"E","5F","PTNTHPR,,N,,P,8.6,N*24","PTNTHPR",NA,"N",NA,"P",8.6,"N","24",6,1,0.15,0.25,0.16,14.11,12.4,12.4,12.4,68.59,68.59,68.59,8268.265,0,0,0,0,0,0,0,0,0,0,0,0,0,0,0,0,19.81691,409.0876,100.1293,247,0.335966666666667,0.273466666666667,137.566813581016,137.566813581016,7.60565616666667,51.964622
"43",2019-12-19 14:07:12,62783,"GPRMC",130706,"A",5157.87729,"N",736.33934,"E",0.15,0,191219,2,"E","57","PTNTHPR,,N,,P,8.5,N*27","PTNTHPR",NA,"N",NA,"P",8.5,"N","27",2,38,0.33,0.18,-0.01,14.12,12.46,12.46,12.46,68.5,68.5,68.5,8094.805,0,0,0,0,0,0,0,0,0,0,0,0,0,0,0,0,19.50867,409.3734,100.1391,247,0.439566666666667,0.407166666666667,156.15076516517,156.15076516517,7.60565566666667,51.9646215
"44",2019-12-19 14:07:13,62784,"GPRMC",130707,"A",5157.87728,"N",736.33933,"E",0.13,0,191219,2,"E","56","PTNTHPR,,N,,P,8.6,N*24","PTNTHPR",NA,"N",NA,"P",8.6,"N","24",4,0,0.18,-0.03,0.03,14.19,12.46,12.46,12.46,68.49,68.49,68.49,8018.813,0,0,0,0,0,0,0,0,0,0,0,0,0,0,0,0,19.63597,401.7036,100.0934,247,0.247777777777778,0.246877777777778,186.928476834725,186.928476834725,7.6056555,51.9646213333333
"45",2019-12-19 14:07:14,62785,"GPRMC",130708,"A",5157.87729,"N",736.33938,"E",0.1,0,191219,2,"E","50","PTNTHPR,,N,,P,8.5,N*27","PTNTHPR",NA,"N",NA,"P",8.5,"N","27",6,1,0.33,0.08,0.05,14.15,12.44,12.44,12.44,68.43,68.43,68.43,8101.413,0,0,0,0,0,0,0,0,0,0,0,0,0,0,0,0,19.70882,400.8793,100.1131,247,0.387844444444444,0.381444444444444,168.155087536535,168.155087536535,7.60565633333333,51.9646215
"46",2019-12-19 14:07:15,62786,"GPRMC",130709,"A",5157.87726,"N",736.33936,"E",0.06,0,191219,2,"E","57","PTNTHPR,,N,,P,8.6,N*24","PTNTHPR",NA,"N",NA,"P",8.6,"N","24",2,38,0.27,-0.09,-0.07,14.11,12.4,12.4,12.4,68.41,68.41,68.41,8197.229,0,0,0,0,0,0,0,0,0,0,0,0,0,0,0,0,19.66692,399.3046,100.1131,247,0.308966666666667,0.300866666666667,196.653808387458,196.653808387458,7.605656,51.964621
"47",2019-12-19 14:07:16,62787,"GPRMC",130710,"A",5157.87725,"N",736.33935,"E",0.05,0,191219,2,"E","5C","PTNTHPR,,N,,P,8.5,N*27","PTNTHPR",NA,"N",NA,"P",8.5,"N","27",4,0,0.24,0.01,-0.08,14.13,12.45,12.45,12.45,68.43,68.43,68.43,8501.197,0,0,0,0,0,0,0,0,0,0,0,0,0,0,0,0,19.6839,401.5695,100.0934,247,0.265822222222222,0.265722222222222,177.844788691598,177.844788691598,7.60565583333333,51.9646208333333
"48",2019-12-19 14:07:17,62788,"GPRMC",130711,"A",5157.87722,"N",736.33932,"E",0.09,0,191219,2,"E","51","PTNTHPR,,N,,P,8.6,N*24","PTNTHPR",NA,"N",NA,"P",8.6,"N","24",6,1,0.18,0.07,-0.06,14.08,12.44,12.44,12.44,68.47,68.47,68.47,9272.682,0,0,0,0,0,0,0,0,0,0,0,0,0,0,0,0,20.01262,400.3141,100.1131,247,0.2312,0.2263,162.811911603842,162.811911603842,7.60565533333333,51.9646203333333
"49",2019-12-19 14:07:18,62789,"GPRMC",130712,"A",5157.87721,"N",736.33932,"E",0.07,0,191219,2,"E","5F","PTNTHPR,,N,,P,8.6,N*24","PTNTHPR",NA,"N",NA,"P",8.6,"N","24",2,38,0.1,0.03,-0.04,14.14,12.42,12.42,12.42,68.47,68.47,68.47,9436.229,0,0,0,0,0,0,0,0,0,0,0,0,0,0,0,0,19.87629,400.0547,100.1131,247,0.136911111111111,0.136011111111111,167.561422571035,167.561422571035,7.60565533333333,51.9646201666667
"50",2019-12-19 14:07:19,62790,"GPRMC",130713,"A",5157.8772,"N",736.33932,"E",0.08,0,191219,2,"E","50","PTNTHPR,,N,,P,8.6,N*24","PTNTHPR",NA,"N",NA,"P",8.6,"N","24",4,0,0.06,0,0.04,14.1,12.42,12.42,12.42,68.53,68.53,68.53,9561.782,0,0,0,0,0,0,0,0,0,0,0,0,0,0,0,0,19.52865,402.0403,100.1293,247,0.101155555555556,0.101155555555556,180,180,7.60565533333333,51.96462
"51",2019-12-19 14:07:20,62791,"GPRMC",130714,"A",5157.87719,"N",736.33934,"E",0.08,0,191219,2,"E","5B","PTNTHPR,,N,,P,8.6,N*24","PTNTHPR",NA,"N",NA,"P",8.6,"N","24",6,1,0.08,0.01,0.01,14.17,12.44,12.44,12.44,68.55,68.55,68.55,9748.458,0,0,0,0,0,0,0,0,0,0,0,0,0,0,0,0,19.69707,401.6843,100.1652,247,0.121255555555556,0.121155555555556,175.281586774462,175.281586774462,7.60565566666667,51.9646198333333
"52",2019-12-19 14:07:21,62792,"GPRMC",130715,"A",5157.8772,"N",736.33941,"E",0.13,0,191219,2,"E","58","PTNTHPR,,N,,P,8.6,N*24","PTNTHPR",NA,"N",NA,"P",8.6,"N","24",2,38,0.08,0.05,0.01,14.13,12.44,12.44,12.44,68.54,68.54,68.54,9449.446,0,0,0,0,0,0,0,0,0,0,0,0,0,0,0,0,19.45841,402.4529,100.1293,247,0.149377777777778,0.146877777777778,161.200445413152,161.200445413152,7.60565683333333,51.96462
"53",2019-12-19 14:07:22,62793,"GPRMC",130716,"A",5157.87721,"N",736.33947,"E",0.09,0,191219,2,"E","57","PTNTHPR,,N,,P,8.6,N*24","PTNTHPR",NA,"N",NA,"P",8.6,"N","24",4,0,0.02,0.04,-0.02,14.13,12.45,12.45,12.45,68.56,68.56,68.56,8740.737,0,0,0,0,0,0,0,0,0,0,0,0,0,0,0,0,19.32799,402.2658,100.1293,247,0.0679,0.0663,148.896652697682,148.896652697682,7.60565783333333,51.9646201666667
"54",2019-12-19 14:07:23,62794,"GPRMC",130717,"A",5157.87722,"N",736.33951,"E",0.15,0,191219,2,"E","5F","PTNTHPR,,N,,P,8.6,N*24","PTNTHPR",NA,"N",NA,"P",8.6,"N","24",6,1,-0.04,0.02,-0.04,14.15,12.45,12.45,12.45,68.6,68.6,68.6,8861.333,0,0,0,0,0,0,0,0,0,0,0,0,0,0,0,0,19.91986,401.559,100.0934,247,0.0375666666666667,0.0371666666666667,151.71456805805,151.71456805805,7.6056585,51.9646203333333
"55",2019-12-19 14:07:24,62795,"GPRMC",130718,"A",5157.87723,"N",736.33953,"E",0.26,0,191219,2,"E","53","PTNTHPR,,N,,P,8.6,N*24","PTNTHPR",NA,"N",NA,"P",8.6,"N","24",2,38,-0.02,-0.04,-0.02,14.18,12.44,12.44,12.44,68.6,68.6,68.6,8739.085,0,0,0,0,0,0,0,0,0,0,0,0,0,0,0,0,19.74317,401.4253,100.1293,247,0.115355555555556,0.113755555555556,199.373264069688,199.373264069688,7.60565883333333,51.9646205
"56",2019-12-19 14:07:25,62796,"GPRMC",130719,"A",5157.87723,"N",736.33955,"E",0.09,0,191219,2,"E","59","PTNTHPR,,N,,P,8.6,N*24","PTNTHPR",NA,"N",NA,"P",8.6,"N","24",4,0,-0.02,-0.07,-0.05,14.24,12.43,12.43,12.43,68.57,68.57,68.57,8448.333,0,0,0,0,0,0,0,0,0,0,0,0,0,0,0,0,19.87468,401.373,100.1293,247,0.0312,0.0263,249.408083268739,249.408083268739,7.60565916666667,51.9646205
"57",2019-12-19 14:07:26,62797,"GPRMC",130720,"A",5157.87725,"N",736.33958,"E",0.16,0,191219,2,"E","56","PTNTHPR,,N,,P,8.6,N*24","PTNTHPR",NA,"N",NA,"P",8.6,"N","24",6,1,-0.04,-0.05,-0.09,14.41,12.43,12.43,12.43,68.56,68.56,68.56,8146.017,0,0,0,0,0,0,0,0,0,0,0,0,0,0,0,0,20.02521,400.3985,100.0934,247,0.0448111111111111,0.0423111111111111,229.761358717483,229.761358717483,7.60565966666667,51.9646208333333
"58",2019-12-19 14:07:27,62798,"GPRMC",130721,"A",5157.87725,"N",736.33959,"E",0.28,0,191219,2,"E","5B","PTNTHPR,,N,,P,8.6,N*24","PTNTHPR",NA,"N",NA,"P",8.6,"N","24",2,38,-0.02,-0.01,0.01,14.48,12.43,12.43,12.43,68.54,68.54,68.54,8335.997,0,0,0,0,0,0,0,0,0,0,0,0,0,0,0,0,19.9431,400.1923,100.1131,247,0.124144444444444,0.124044444444444,184.609004466895,184.609004466895,7.60565983333333,51.9646208333333
"59",2019-12-19 14:07:28,62799,"GPRMC",130722,"A",5157.87725,"N",736.3396,"E",0.34,0,191219,2,"E","5F","PTNTHPR,,N,,P,8.6,N*24","PTNTHPR",NA,"N",NA,"P",8.6,"N","24",4,0,0.14,-0.07,0.19,15.26,12.44,12.44,12.44,68.49,68.49,68.49,8251.745,0,0,0,0,0,0,0,0,0,0,0,0,0,0,0,0,19.99928,399.9935,100.1131,247,0.319811111111111,0.314911111111111,192.532232467522,192.532232467522,7.60566,51.9646208333333
"60",2019-12-19 14:07:29,62800,"GPRMC",130723,"A",5157.87726,"N",736.33962,"E",0.28,0,191219,2,"E","52","PTNTHPR,,N,,P,8.6,N*24","PTNTHPR",NA,"N",NA,"P",8.6,"N","24",6,1,0.12,0.01,0.27,15.59,12.45,12.45,12.45,68.53,68.53,68.53,8476.417,0,0,0,0,0,0,0,0,0,0,0,0,0,0,0,0,20.20916,399.0646,100.1293,247,0.264144444444444,0.264044444444444,177.83110719494,177.83110719494,7.60566033333333,51.964621
"61",2019-12-19 14:07:30,62801,"GPRMC",130724,"A",5157.87726,"N",736.33963,"E",0.18,0,191219,2,"E","57","PTNTHPR,,N,,P,8.6,N*24","PTNTHPR",NA,"N",NA,"P",8.6,"N","24",2,38,0.09,-0.04,0.2,15.46,12.46,12.46,12.46,68.5,68.5,68.5,8293.045,0,0,0,0,0,0,0,0,0,0,0,0,0,0,0,0,20.61829,398.9789,100.1293,247,0.1842,0.1826,192.355930170956,192.355930170956,7.6056605,51.964621
"62",2019-12-19 14:07:31,62802,"GPRMC",130725,"A",5157.87726,"N",736.33965,"E",0.1,0,191219,2,"E","58","PTNTHPR,,N,,P,8.5,N*27","PTNTHPR",NA,"N",NA,"P",8.5,"N","27",4,0,0.08,0.05,0.16,14.87,12.46,12.46,12.46,68.47,68.47,68.47,8046.897,0,0,0,0,0,0,0,0,0,0,0,0,0,0,0,0,20.59457,398.6535,100.1131,247,0.133944444444444,0.131444444444444,159.173743656741,159.173743656741,7.60566083333333,51.964621
"63",2019-12-19 14:07:32,62803,"GPRMC",130726,"A",5157.87726,"N",736.33965,"E",0.04,0,191219,2,"E","5E","PTNTHPR,,N,,P,8.6,N*24","PTNTHPR",NA,"N",NA,"P",8.6,"N","24",6,1,0.04,0,0.13,14.85,12.46,12.46,12.46,68.45,68.45,68.45,7995.685,0,0,0,0,0,0,0,0,0,0,0,0,0,0,0,0,20.61913,398.111,100.1032,247,0.0605777777777778,0.0605777777777778,180,180,7.60566083333333,51.964621
"64",2019-12-19 14:07:33,62804,"GPRMC",130727,"A",5157.87724,"N",736.33967,"E",0.14,0,191219,2,"E","5E","PTNTHPR,,N,,P,8.9,N*2B","PTNTHPR",NA,"N",NA,"P",8.9,"N","2B",2,38,0.06,0.05,0.19,15.28,12.47,12.47,12.47,68.43,68.43,68.43,7804.053,0,0,0,0,0,0,0,0,0,0,0,0,0,0,0,0,20.49931,397.3255,100.1293,247,0.134522222222222,0.132022222222222,159.257114494736,159.257114494736,7.60566116666667,51.9646206666667
"65",2019-12-19 14:07:34,62805,"GPRMC",130728,"A",5157.87724,"N",736.33969,"E",0.25,0,191219,2,"E","5D","PTNTHPR,,N,,P,8.4,N*26","PTNTHPR",NA,"N",NA,"P",8.4,"N","26",4,0,0.05,-0.01,0.21,15.59,12.41,12.41,12.41,68.42,68.42,68.42,7868.481,0,0,0,0,0,0,0,0,0,0,0,0,0,0,0,0,20.52082,397.8612,100.1553,247,0.178711111111111,0.178611111111111,183.204505303314,183.204505303314,7.6056615,51.9646206666667
"66",2019-12-19 14:07:35,62806,"GPRMC",130729,"A",5157.87723,"N",736.33971,"E",0.31,0,191219,2,"E","57","PTNTHPR,,N,,P,8.3,N*21","PTNTHPR",NA,"N",NA,"P",8.3,"N","21",6,1,0.06,0.05,0.2,15.18,12.42,12.42,12.42,68.37,68.37,68.37,7665.285,0,0,0,0,0,0,0,0,0,0,0,0,0,0,0,0,20.69077,397.6082,100.1293,247,0.221977777777778,0.219477777777778,167.166275372932,167.166275372932,7.60566183333333,51.9646205
"67",2019-12-19 14:07:36,62807,"GPRMC",130730,"A",5157.87721,"N",736.33972,"E",0.12,0,191219,2,"E","5F","PTNTHPR,,N,,P,8.5,N*27","PTNTHPR",NA,"N",NA,"P",8.5,"N","27",2,38,-0.03,0.04,0.08,14.91,12.44,12.44,12.44,68.37,68.37,68.37,7615.725,0,0,0,0,0,0,0,0,0,0,0,0,0,0,0,0,20.53746,397.7331,100.1293,247,0.0333333333333333,0.0317333333333333,128.426139975714,128.426139975714,7.605662,51.9646201666667
"68",2019-12-19 14:07:37,62808,"GPRMC",130731,"A",5157.87719,"N",736.33974,"E",0.14,0,191219,2,"E","55","PTNTHPR,,N,,P,8.1,N*23","PTNTHPR",NA,"N",NA,"P",8.1,"N","23",4,0,0.01,0.05,0.12,14.76,12.45,12.45,12.45,68.38,68.38,68.38,7866.829,0,0,0,0,0,0,0,0,0,0,0,0,0,0,0,0,20.36178,397.3218,100.1293,247,0.0845222222222222,0.0820222222222222,148.633895272169,148.633895272169,7.60566233333333,51.9646198333333
"69",2019-12-19 14:07:38,62809,"GPRMC",130732,"A",5157.87719,"N",736.33978,"E",0.17,0,191219,2,"E","59","PTNTHPR,,N,,P,10.0,N*1B","PTNTHPR",NA,"N",NA,"P",10,"N","1B",6,1,0.08,0.02,0.24,15.26,12.46,12.46,12.46,68.33,68.33,68.33,7554.601,0,0,0,0,0,0,0,0,0,0,0,0,0,0,0,0,20.1531,398.9278,100.1553,247,0.167855555555556,0.167455555555556,173.189159601754,173.189159601754,7.605663,51.9646198333333
"70",2019-12-19 14:07:39,62810,"GPRMC",130733,"A",5157.87719,"N",736.33984,"E",0.2,0,191219,2,"E","5F","PTNTHPR,,N,,P,9.2,N*21","PTNTHPR",NA,"N",NA,"P",9.2,"N","21",2,38,-0.02,0.05,0.16,15.11,12.46,12.46,12.46,68.33,68.33,68.33,7509.997,0,0,0,0,0,0,0,0,0,0,0,0,0,0,0,0,20.26199,397.535,100.0934,247,0.0853888888888889,0.0828888888888889,148.900899358612,148.900899358612,7.605664,51.9646198333333
"71",2019-12-19 14:07:40,62811,"GPRMC",130734,"A",5157.87719,"N",736.3399,"E",0.28,0,191219,2,"E","55","PTNTHPR,,N,,P,8.9,N*2B","PTNTHPR",NA,"N",NA,"P",8.9,"N","2B",4,0,-0.05,0.08,0.09,14.38,12.45,12.45,12.45,68.33,68.33,68.33,7493.477,0,0,0,0,0,0,0,0,0,0,0,0,0,0,0,0,20.30634,394.2197,100.1293,247,0.100444444444444,0.0940444444444445,139.613462854391,139.613462854391,7.605665,51.9646198333333
"72",2019-12-19 14:07:41,62812,"GPRMC",130735,"A",5157.87719,"N",736.33996,"E",0.16,0,191219,2,"E","5F","PTNTHPR,,N,,P,8.6,N*24","PTNTHPR",NA,"N",NA,"P",8.6,"N","24",6,1,-0.02,0.06,0.08,14.18,12.47,12.47,12.47,68.32,68.32,68.32,7595.901,0,0,0,0,0,0,0,0,0,0,0,0,0,0,0,0,20.40723,393.6128,100.1293,247,0.0659111111111111,0.0623111111111111,136.082494923824,136.082494923824,7.605666,51.9646198333333
"73",2019-12-19 14:07:42,62813,"GPRMC",130736,"A",5157.87719,"N",736.34,"E",0.12,0,191219,2,"E","59","PTNTHPR,,N,,P,8.6,N*24","PTNTHPR",NA,"N",NA,"P",8.6,"N","24",2,38,-0.01,0.04,0.06,14.04,12.45,12.45,12.45,68.28,68.28,68.28,7571.121,0,0,0,0,0,0,0,0,0,0,0,0,0,0,0,0,20.37372,392.4889,100.0934,247,0.0533333333333333,0.0517333333333333,142.28895232361,142.28895232361,7.60566666666667,51.9646198333333
"74",2019-12-19 14:07:43,62814,"GPRMC",130737,"A",5157.8772,"N",736.34003,"E",0.3,0,191219,2,"E","51","PTNTHPR,,N,,P,8.6,N*24","PTNTHPR",NA,"N",NA,"P",8.6,"N","24",4,0,-0.06,0.05,0.05,14.12,12.44,12.44,12.44,68.25,68.25,68.25,7660.329,0,0,0,0,0,0,0,0,0,0,0,0,0,0,0,0,20.55837,395.4491,100.1293,247,0.0968333333333334,0.0943333333333334,152.074829711634,152.074829711634,7.60566716666667,51.96462
"75",2019-12-19 14:07:44,62815,"GPRMC",130738,"A",5157.87721,"N",736.34005,"E",0.43,0,191219,2,"E","5D","PTNTHPR,,N,,P,8.6,N*24","PTNTHPR",NA,"N",NA,"P",8.6,"N","24",6,1,-0.06,0.02,0.06,14.09,12.45,12.45,12.45,68.32,68.32,68.32,7668.589,0,0,0,0,0,0,0,0,0,0,0,0,0,0,0,0,20.63471,396.2961,100.1131,247,0.161611111111111,0.161211111111111,172.927966871768,172.927966871768,7.6056675,51.9646201666667
"76",2019-12-19 14:07:45,62816,"GPRMC",130739,"A",5157.87722,"N",736.34006,"E",0.54,0,191219,2,"E","5A","PTNTHPR,,N,,P,8.6,N*24","PTNTHPR",NA,"N",NA,"P",8.6,"N","24",2,38,-0.02,0.07,0.04,14,12.46,12.46,12.46,68.32,68.32,68.32,7648.765,0.147,0.077,0.092,0.048,0.078,0.185,0.389,0.54,2.298,1.868,3.199,0,6.484,6.256,0,0,20.75439,393.7802,100.149,247,0.2627,0.2578,164.808840049792,164.808840049792,7.60566766666667,51.9646203333333
"77",2019-12-19 14:07:46,62817,"GPRMC",130740,"A",5157.87723,"N",736.34008,"E",0.53,0,191219,2,"E","5C","PTNTHPR,,N,,P,8.6,N*24","PTNTHPR",NA,"N",NA,"P",8.6,"N","24",4,0,-0.07,0.08,-0.03,14.17,12.45,12.45,12.45,68.36,68.36,68.36,7668.589,0.142,0.099,0.088,0.103,0.157,0.325,0.243,1.079,2.507,1.494,3.998,1.68,6.484,0,0,23.295,20.40203,391.3711,100.1131,247,0.209055555555556,0.202655555555556,158.457951236618,158.457951236618,7.605668,51.9646205
"78",2019-12-19 14:07:47,62818,"GPRMC",130741,"A",5157.87726,"N",736.3401,"E",0.64,0,191219,2,"E","55","PTNTHPR,,N,,P,8.6,N*24","PTNTHPR",NA,"N",NA,"P",8.6,"N","24",6,1,-0.03,0.08,0.05,14.12,12.45,12.45,12.45,68.35,68.35,68.35,7437.309,0.168,0.124,0.084,0.055,0.052,0.232,0.535,0.755,2.298,2.241,3.199,0,12.968,0,0,0,20.27588,392.0109,100.1293,247,0.305644444444444,0.299244444444444,165.03257272441,165.03257272441,7.60566833333333,51.964621
"79",2019-12-19 14:07:48,62819,"GPRMC",130742,"A",5157.87742,"N",736.33999,"E",0.65,0,191219,2,"E","5A","PTNTHPR,,N,,P,8.6,N*24","PTNTHPR",NA,"N",NA,"P",8.6,"N","24",2,38,-0.04,0.06,-0.02,14.18,12.44,12.44,12.44,68.38,68.38,68.38,7602.509,0.14,0.084,0.07,0.135,0.052,0.417,0.292,0.647,2.298,3.362,1.599,3.36,0,0,0,0,20.67325,391.0046,100.1293,247,0.297988888888889,0.294388888888889,168.480209036304,168.480209036304,7.6056665,51.9646236666667
"80",2019-12-19 14:07:49,62820,"GPRMC",130743,"A",5157.87756,"N",736.33985,"E",0.52,0,191219,2,"E","57","PTNTHPR,,N,,P,8.6,N*24","PTNTHPR",NA,"N",NA,"P",8.6,"N","24",4,0,-0.1,0.09,0.06,14.27,12.45,12.45,12.45,68.37,68.37,68.37,7628.944,0.161,0.113,0.097,0.071,0.091,0.232,0.535,0.54,1.671,2.241,4.798,6.719,3.242,12.511,0,0,20.78993,393.1678,100.1293,247,0.175611111111111,0.167511111111111,151.751849094976,151.751849094976,7.60566416666667,51.964626
"81",2019-12-19 14:07:50,62821,"GPRMC",130744,"A",5157.87758,"N",736.33984,"E",0.25,0,191219,2,"E","5F","PTNTHPR,,N,,P,8.5,N*27","PTNTHPR",NA,"N",NA,"P",8.5,"N","27",6,1,-0.14,0.07,0.03,14.09,12.43,12.43,12.43,68.38,68.38,68.38,7652.073,0.174,0.075,0.114,0.135,0.118,0.232,0.486,1.295,1.671,2.615,4.798,5.039,0,0,0,23.295,20.64215,391.5531,100.1293,247,0.0162888888888889,-0.0113888888888889,80.759038362893,80.759038362893,7.605664,51.9646263333333
"82",2019-12-19 14:07:51,62822,"GPRMC",130745,"A",5157.87759,"N",736.33985,"E",0.08,0,191219,2,"E","51","PTNTHPR,,N,,P,8.6,N*24","PTNTHPR",NA,"N",NA,"P",8.6,"N","24",2,38,-0.11,0.04,0.03,14.06,12.45,12.45,12.45,68.4,68.4,68.4,7708.241,0.163,0.103,0.079,0.071,0.078,0.371,0.486,1.835,1.88,3.362,3.199,6.719,3.242,6.256,0,0,20.62295,390.4541,100.1293,247,0.0704444444444444,-0.0688444444444444,30.1574450360945,30.1574450360945,7.60566416666667,51.9646265
"83",2019-12-19 14:07:52,62823,"GPRMC",130746,"A",5157.8776,"N",736.33986,"E",0.14,0,191219,2,"E","56","PTNTHPR,,N,,P,8.5,N*27","PTNTHPR",NA,"N",NA,"P",8.5,"N","27",4,0,-0.1,0.02,0.03,14.05,12.45,12.45,12.45,68.36,68.36,68.36,7407.576,0.164,0.08,0.101,0.103,0.091,0.417,0.292,0.647,2.924,1.494,2.399,1.68,3.242,0,0,0,20.92564,392.4265,100.1293,247,0.0283777777777778,-0.0279777777777778,35.5591965243484,35.5591965243484,7.60566433333333,51.9646266666667
"84",2019-12-19 14:07:53,62824,"GPRMC",130747,"A",5157.87761,"N",736.3399,"E",0.33,0,191219,2,"E","54","PTNTHPR,,N,,P,8.6,N*24","PTNTHPR",NA,"N",NA,"P",8.6,"N","24",6,1,-0.08,0.02,0.04,14.04,12.4,12.4,12.4,68.36,68.36,68.36,7012.748,0.147,0.11,0.097,0.079,0.091,0.093,0.292,0.647,1.462,0.747,0.8,0,6.484,0,12.069,0,20.76101,391.8489,100.1293,247,0.0901666666666667,0.0897666666666667,167.439657879079,167.439657879079,7.605665,51.9646268333333
"85",2019-12-19 14:07:54,62825,"GPRMC",130748,"A",5157.87762,"N",736.33994,"E",0.36,0,191219,2,"E","59","PTNTHPR,,N,,P,8.6,N*24","PTNTHPR",NA,"N",NA,"P",8.6,"N","24",2,38,-0.04,0.1,0.07,13.94,12.44,12.44,12.44,68.37,68.37,68.37,6969.796,0.162,0.096,0.079,0.103,0.065,0.325,0.389,0.755,1.253,2.241,1.599,0,6.484,0,0,0,20.45713,389.5122,100.149,247,0.1552,0.1452,145.44461204772,145.44461204772,7.60566566666667,51.964627
"86",2019-12-19 14:07:55,62826,"GPRMC",130749,"A",5157.87763,"N",736.33999,"E",0.38,0,191219,2,"E","5A","PTNTHPR,,N,,P,8.5,N*27","PTNTHPR",NA,"N",NA,"P",8.5,"N","27",4,0,0.09,-0.08,0.16,14.48,12.46,12.46,12.46,68.48,68.48,68.48,7358.016,0.168,0.101,0.123,0.111,0.131,0.139,0.34,0.432,1.044,2.241,3.998,3.36,3.242,0,0,0,19.97507,399.9603,100.1131,247,0.291888888888889,0.285488888888889,195.653990954613,195.653990954613,7.6056665,51.9646271666667
"87",2019-12-19 14:07:56,62827,"GPRMC",130750,"A",5157.87766,"N",736.34006,"E",0.27,0,191219,2,"E","51","PTNTHPR,,N,,P,8.6,N*24","PTNTHPR",NA,"N",NA,"P",8.6,"N","24",6,1,-0.11,-0.08,-0.05,14.66,12.44,12.44,12.44,68.62,68.62,68.62,7397.665,0.175,0.075,0.11,0.055,0.104,0.371,0.292,1.403,2.298,1.868,7.997,1.68,0,0,0,0,19.62794,411.8301,100.1032,247,0.0353,0.0289,250.137746188565,250.137746188565,7.60566766666667,51.9646276666667
"88",2019-12-19 14:07:57,62828,"GPRMC",130751,"A",5157.87768,"N",736.34012,"E",0.15,0,191219,2,"E","5A","PTNTHPR,,N,,P,8.4,N*26","PTNTHPR",NA,"N",NA,"P",8.4,"N","26",2,38,-0.05,0.01,-0.03,14.5,12.4,12.4,12.4,68.63,68.63,68.63,7179.6,0.13,0.096,0.04,0.063,0.118,0.232,0.146,1.079,1.671,1.121,1.599,1.68,3.242,0,0,23.295,20.87953,412.4721,100.149,247,0.0272666666666667,0.0271666666666667,159.791431662937,159.791431662937,7.60566866666667,51.964628
"89",2019-12-19 14:07:58,62829,"GPRMC",130752,"A",5157.87769,"N",736.34018,"E",0.12,0,191219,2,"E","55","PTNTHPR,,N,,P,8.6,N*24","PTNTHPR",NA,"N",NA,"P",8.6,"N","24",4,0,-0.01,0.08,-0.02,14.31,12.46,12.46,12.46,68.78,68.78,68.78,7430.705,0.167,0.066,0.101,0.032,0.118,0.232,0.437,0.971,1.253,1.868,2.399,0,0,0,0,0,20.7326,409.3301,100.1131,247,0.0581333333333333,0.0517333333333333,122.889402232346,122.889402232346,7.60566966666667,51.9646281666667
"90",2019-12-19 14:07:59,62830,"GPRMC",130753,"A",5157.87771,"N",736.34026,"E",0.19,0,191219,2,"E","5B","PTNTHPR,,N,,P,8.4,N*26","PTNTHPR",NA,"N",NA,"P",8.4,"N","26",6,1,-0.06,0.05,-0.04,14.35,12.44,12.44,12.44,68.98,68.98,68.98,7265.504,0.155,0.087,0.079,0.055,0.091,0.394,0.146,0.863,2.089,1.868,4.798,3.36,0,0,0,0,20.32647,407.1938,100.1131,247,0.0402444444444445,0.0377444444444445,127.04874948581,127.04874948581,7.605671,51.9646285
"91",2019-12-19 14:08:00,62831,"GPRMC",130754,"A",5157.87773,"N",736.34034,"E",0.35,0,191219,2,"E","53","PTNTHPR,,N,,P,8.7,N*25","PTNTHPR",NA,"N",NA,"P",8.7,"N","25",2,38,-0.1,0.02,-0.05,14.15,12.44,12.44,12.44,69.14,69.14,69.14,6498.975,0.179,0.12,0.084,0.087,0.131,0.348,0.389,0.432,3.551,1.121,2.399,1.68,0,0,0,0,20.68585,399.0902,100.1293,247,0.0804555555555555,0.0800555555555555,165.973112472473,165.973112472473,7.60567233333333,51.9646288333333
"92",2019-12-19 14:08:01,62832,"GPRMC",130755,"A",5157.87776,"N",736.34044,"E",0.48,0,191219,2,"E","5A","PTNTHPR,,N,,P,9.3,N*20","PTNTHPR",NA,"N",NA,"P",9.3,"N","20",4,0,-0.18,0,-0.02,14.01,12.45,12.45,12.45,69.28,69.28,69.28,7156.472,0.174,0.089,0.084,0.048,0.065,0.232,0.437,0.971,1.671,1.494,2.399,0,3.242,0,0,0,20.8475,401.4082,100.1293,247,0.0669333333333333,0.0669333333333333,180,180,7.605674,51.9646293333333
"93",2019-12-19 14:08:02,62833,"GPRMC",130756,"A",5157.87777,"N",736.3405,"E",0.43,0,191219,2,"E","56","PTNTHPR,,N,,P,10.5,N*1E","PTNTHPR",NA,"N",NA,"P",10.5,"N","1E",6,1,-0.07,-0.04,-0.03,14.01,12.47,12.47,12.47,69.42,69.42,69.42,7975.865,0.144,0.094,0.088,0.079,0.118,0.371,0.437,0.54,0.418,1.494,3.998,5.039,0,0,0,0,20.64639,402.482,100.1293,247,0.152811111111111,0.151211111111111,194.817106304718,194.817106304718,7.605675,51.9646295
"94",2019-12-19 14:08:03,62834,"GPRMC",130757,"A",5157.87778,"N",736.34055,"E",0.42,0,191219,2,"E","5C","PTNTHPR,,N,,P,9.4,N*27","PTNTHPR",NA,"N",NA,"P",9.4,"N","27",2,38,-0.09,-0.01,0.02,14,12.47,12.47,12.47,69.51,69.51,69.51,7899.873,0.158,0.08,0.066,0.063,0.131,0.232,0.437,0.432,2.716,2.988,3.199,1.68,0,6.256,0,0,21.36275,402.0852,100.1293,247,0.126166666666667,0.126066666666667,184.535382853849,184.535382853849,7.60567583333333,51.9646296666667
"95",2019-12-19 14:08:04,62835,"GPRMC",130758,"A",5157.8778,"N",736.34061,"E",0.49,0,191219,2,"E","58","PTNTHPR,,N,,P,9.8,N*2B","PTNTHPR",NA,"N",NA,"P",9.8,"N","2B",4,0,0.1,-0.05,0.18,15.28,12.46,12.46,12.46,69.5,69.5,69.5,7942.825,0.165,0.075,0.092,0.111,0.131,0.371,0.437,0.216,1.88,1.494,1.599,0,3.242,6.256,0,0,21.37698,401.5264,100.0934,247,0.354577777777778,0.352077777777778,188.082758641222,188.082758641222,7.60567683333333,51.96463
"96",2019-12-19 14:08:05,62836,"GPRMC",130759,"A",5157.87782,"N",736.34066,"E",0.38,0,191219,2,"E","5A","PTNTHPR,,N,,P,9.4,N*27","PTNTHPR",NA,"N",NA,"P",9.4,"N","27",6,1,0.03,0.02,0.11,14.79,12.47,12.47,12.47,69.57,69.57,69.57,7483.568,0.14,0.089,0.11,0.071,0.118,0.185,0.292,0.971,1.253,2.988,0.8,1.68,6.484,12.511,0,0,21.65778,398.3908,100.1293,247,0.225888888888889,0.225488888888889,174.931347950934,174.931347950934,7.60567766666667,51.9646303333333
"97",2019-12-19 14:08:06,62837,"GPRMC",130800,"A",5157.87784,"N",736.34072,"E",0.3,0,191219,2,"E","52","PTNTHPR,,N,,P,8.9,N*2B","PTNTHPR",NA,"N",NA,"P",8.9,"N","2B",2,38,-0.01,0.08,0.16,14.32,12.46,12.46,12.46,69.58,69.58,69.58,7878.397,0.159,0.099,0.11,0.071,0.183,0.301,0.68,1.079,2.089,0.747,2.399,3.36,0,0,0,0,21.14916,395.0354,100.1293,247,0.150733333333333,0.144333333333333,151.001601277747,151.001601277747,7.60567866666667,51.9646306666667
"98",2019-12-19 14:08:07,62838,"GPRMC",130801,"A",5157.87785,"N",736.34077,"E",0.12,0,191219,2,"E","57","PTNTHPR,,N,,P,8.2,N*20","PTNTHPR",NA,"N",NA,"P",8.2,"N","20",4,0,-0.05,0.01,0.1,14.59,12.44,12.44,12.44,69.58,69.58,69.58,7599.208,0.169,0.101,0.075,0.111,0.118,0.301,0.243,1.187,1.253,1.494,1.599,0,0,0,0,0,21.02107,393.438,100.1032,247,0.0118333333333333,0.0117333333333333,139.559950087412,139.559950087412,7.6056795,51.9646308333333
"99",2019-12-19 14:08:08,62839,"GPRMC",130802,"A",5157.87786,"N",736.34081,"E",0.06,0,191219,2,"E","5B","PTNTHPR,,N,,P,8.4,N*26","PTNTHPR",NA,"N",NA,"P",8.4,"N","26",6,1,-0.03,-0.04,0.12,14.33,12.46,12.46,12.46,69.55,69.55,69.55,7898.221,0.175,0.094,0.07,0.103,0.091,0.139,0.34,0.647,2.507,1.868,3.199,0,0,6.256,0,0,21.30387,394.9059,100.1131,247,0.00246666666666667,0.000866666666666668,268.758785646636,268.758785646636,7.60568016666667,51.964631
"100",2019-12-19 14:08:09,62840,"GPRMC",130803,"A",5157.87788,"N",736.34086,"E",0.06,0,191219,2,"E","53","PTNTHPR,,N,,P,8.6,N*24","PTNTHPR",NA,"N",NA,"P",8.6,"N","24",2,38,-0.07,-0.03,0.06,14.39,12.45,12.45,12.45,69.55,69.55,69.55,7848.661,0.152,0.094,0.088,0.071,0.091,0.278,0.34,1.079,2.716,1.868,3.199,1.68,0,0,0,0,21.4727,400.2606,100.149,247,0.0400333333333333,-0.0391333333333333,322.525869643914,322.525869643914,7.605681,51.9646313333333
"101",2019-12-19 14:08:10,62841,"GPRMC",130804,"A",5157.87791,"N",736.34091,"E",0.18,0,191219,2,"E","55","PTNTHPR,,N,,P,8.4,N*26","PTNTHPR",NA,"N",NA,"P",8.4,"N","26",4,0,-0.05,-0.05,0.06,14.67,12.45,12.45,12.45,69.51,69.51,69.51,7875.093,0.168,0.103,0.084,0.111,0.118,0.255,0.292,0.324,1.462,3.362,2.399,0,6.484,0,12.069,0,21.1245,395.7102,100.1293,247,0.0451,0.0426,229.569002745061,229.569002745061,7.60568183333333,51.9646318333333
"102",2019-12-19 14:08:11,62842,"GPRMC",130805,"A",5157.87793,"N",736.34096,"E",0.19,0,191219,2,"E","50","PTNTHPR,,N,,P,8.4,N*26","PTNTHPR",NA,"N",NA,"P",8.4,"N","26",6,1,0.04,-0.23,0.24,15.61,12.46,12.46,12.46,69.51,69.51,69.51,7818.925,0.175,0.101,0.075,0.079,0.131,0.371,0.486,0.432,2.298,2.615,0,0,3.242,0,0,0,21.66916,395.6681,100.1131,247,0.190644444444444,0.137744444444444,239.083076692344,239.083076692344,7.60568266666667,51.9646321666667
"103",2019-12-19 14:08:12,62843,"GPRMC",130806,"A",5157.87794,"N",736.341,"E",0.2,0,191219,2,"E","50","PTNTHPR,,N,,P,8.4,N*26","PTNTHPR",NA,"N",NA,"P",8.4,"N","26",2,38,-0.07,0,0.23,14.53,12.47,12.47,12.47,69.51,69.51,69.51,7202.728,0.167,0.099,0.062,0.071,0.052,0.325,0.146,0.971,2.507,1.868,2.399,0,0,0,0,23.295,21.44732,394.9269,100.1032,247,0.0328888888888889,0.0328888888888889,180,180,7.60568333333333,51.9646323333333
"104",2019-12-19 14:08:13,62844,"GPRMC",130807,"A",5157.87795,"N",736.34104,"E",0.26,0,191219,2,"E","52","PTNTHPR,,N,,P,8.5,N*27","PTNTHPR",NA,"N",NA,"P",8.5,"N","27",4,0,-0.16,0.04,0.11,14.65,12.47,12.47,12.47,69.51,69.51,69.51,7407.576,0.156,0.099,0.084,0.055,0.17,0.348,0.34,0.647,1.88,2.615,3.998,3.36,0,0,0,0,21.38543,395.7148,100.1293,247,0.0278444444444444,-0.0262444444444444,56.7306746446801,56.7306746446801,7.605684,51.9646325
"105",2019-12-19 14:08:14,62845,"GPRMC",130808,"A",5157.87796,"N",736.34107,"E",0.3,0,191219,2,"E","5A","PTNTHPR,,N,,P,8.6,N*24","PTNTHPR",NA,"N",NA,"P",8.6,"N","24",6,1,-0.15,-0.03,0.14,14.76,12.44,12.44,12.44,69.48,69.48,69.48,7399.316,0.156,0.108,0.114,0.087,0.118,0.325,0.292,1.079,0.209,0.747,3.199,3.36,0,0,0,0,24.22547,395.7747,100.1293,247,0.00523333333333336,0.00433333333333336,261.780790751101,261.780790751101,7.6056845,51.9646326666667
"106",2019-12-19 14:08:15,62846,"GPRMC",130809,"A",5157.87797,"N",736.34111,"E",0.23,0,191219,2,"E","5F","PTNTHPR,,N,,P,8.6,N*24","PTNTHPR",NA,"N",NA,"P",8.6,"N","24",2,38,-0.25,0.12,-0.04,14.62,12.48,12.48,12.48,69.53,69.53,69.53,7097,0.175,0.106,0.057,0.087,0.065,0.232,0.34,0.647,0.836,1.121,0.8,1.68,3.242,0,0,0,25.99791,398.4864,100.0934,247,0.146077777777778,-0.131677777777778,42.3433974225733,42.3433974225733,7.60568516666667,51.9646328333333
"107",2019-12-19 14:08:16,62847,"GPRMC",130810,"A",5157.87798,"N",736.34115,"E",0.09,0,191219,2,"E","54","PTNTHPR,,N,,P,8.5,N*27","PTNTHPR",NA,"N",NA,"P",8.5,"N","27",4,0,-0.11,0.26,-0.12,14.4,12.48,12.48,12.48,69.49,69.49,69.49,7237.42,0.128,0.11,0.07,0.079,0.118,0.162,0.243,0.755,2.089,0.374,3.199,3.36,0,0,0,0,22.00456,398.4182,100.1293,247,0.1313,-0.0637,76.2336993145337,76.2336993145337,7.60568583333333,51.964633
"108",2019-12-19 14:08:17,62848,"GPRMC",130811,"A",5157.87798,"N",736.34116,"E",0.1,0,191219,2,"E","5E","PTNTHPR,,N,,P,8.6,N*24","PTNTHPR",NA,"N",NA,"P",8.6,"N","24",6,1,-0.01,-0.09,-0.19,14.4,12.46,12.46,12.46,69.49,69.49,69.49,6822.768,0.162,0.115,0.066,0.087,0.091,0.209,0.34,1.079,1.671,2.241,1.599,1.68,0,0,0,0,21.25537,403.6858,100.1032,247,0.0495444444444444,0.0414444444444445,245.274221384388,245.274221384388,7.605686,51.964633
"109",2019-12-19 14:08:18,62849,"GPRMC",130812,"A",5157.87799,"N",736.34117,"E",0.07,0,191219,2,"E","5B","PTNTHPR,,N,,P,8.6,N*24","PTNTHPR",NA,"N",NA,"P",8.6,"N","24",2,38,-0.03,0.02,-0.14,14.37,12.46,12.46,12.46,69.49,69.49,69.49,6736.864,0.136,0.087,0.079,0.087,0.17,0.278,0,1.079,1.044,2.241,0.8,0,0,0,0,0,21.04647,408.2397,100.1293,247,0.00641111111111112,0.00601111111111112,106.728442508749,106.728442508749,7.60568616666667,51.9646331666667
"110",2019-12-19 14:08:19,62850,"GPRMC",130813,"A",5157.878,"N",736.34119,"E",0.17,0,191219,2,"E","5A","PTNTHPR,,N,,P,8.5,N*27","PTNTHPR",NA,"N",NA,"P",8.5,"N","27",4,0,-0.12,0.02,-0.08,14.64,12.47,12.47,12.47,69.5,69.5,69.5,6536.971,0.159,0.117,0.048,0.111,0.052,0.278,0.34,1.187,1.88,2.615,1.599,0,0,6.256,0,23.295,22.6905,407.32,100.1293,247,0.0329444444444444,-0.0325444444444444,31.5725638024132,31.5725638024132,7.6056865,51.9646333333333
"111",2019-12-19 14:08:20,62851,"GPRMC",130814,"A",5157.878,"N",736.34119,"E",0.17,0,191219,2,"E","5D","PTNTHPR,,N,,P,8.5,N*27","PTNTHPR",NA,"N",NA,"P",8.5,"N","27",6,1,0.02,0.01,-0.04,14.77,12.47,12.47,12.47,69.55,69.55,69.55,6456.023,0.161,0.096,0.084,0.119,0.131,0.232,0.389,0.647,1.462,1.121,3.199,1.68,0,0,0,0,21.53105,411.4164,100.1131,247,0.107555555555556,0.107455555555556,174.683268787285,174.683268787285,7.6056865,51.9646333333333
"112",2019-12-19 14:08:21,62852,"GPRMC",130815,"A",5157.87802,"N",736.34122,"E",0.12,0,191219,2,"E","53","PTNTHPR,,N,,P,8.5,N*27","PTNTHPR",NA,"N",NA,"P",8.5,"N","27",2,38,0.1,0.02,0.07,14.88,12.47,12.47,12.47,69.54,69.54,69.54,6773.208,0.161,0.101,0.088,0.048,0.091,0.139,0.583,0.647,1.253,1.494,0.8,1.68,0,0,0,0,20.30388,407.8223,100.1131,247,0.162133333333333,0.161733333333333,172.950571706867,172.950571706867,7.605687,51.9646336666667
"113",2019-12-19 14:08:22,62853,"GPRMC",130816,"A",5157.87802,"N",736.34124,"E",0.11,0,191219,2,"E","55","PTNTHPR,,N,,P,8.6,N*24","PTNTHPR",NA,"N",NA,"P",8.6,"N","24",4,0,-0.01,-0.05,0.02,14.96,12.48,12.48,12.48,69.52,69.52,69.52,6561.751,0.147,0.087,0.101,0.071,0.118,0.209,0.146,1.079,2.716,4.109,6.397,0,0,0,0,0,20.9359,393.0075,100.1131,247,0.0490888888888889,0.0465888888888889,227.022604059381,227.022604059381,7.60568733333333,51.9646336666667
"114",2019-12-19 14:08:23,62854,"GPRMC",130817,"A",5157.87802,"N",736.34126,"E",0.09,0,191219,2,"E","5F","PTNTHPR,,N,,P,9.2,N*21","PTNTHPR",NA,"N",NA,"P",9.2,"N","21",6,1,0.03,-0.02,0.05,14.76,12.47,12.47,12.47,69.53,69.53,69.53,6935.104,0.148,0.087,0.066,0.055,0.131,0.301,0.389,1.079,1.462,1.494,3.998,0,3.242,6.256,0,0,20.82405,393.2417,100.1032,247,0.0767,0.0763,194.688104591372,194.688104591372,7.60568766666667,51.9646336666667
"115",2019-12-19 14:08:24,62855,"GPRMC",130818,"A",5157.87802,"N",736.34126,"E",0.05,0,191219,2,"E","5C","PTNTHPR,,N,,P,8.2,N*20","PTNTHPR",NA,"N",NA,"P",8.2,"N","20",2,38,-0.03,-0.04,0.04,14.41,12.47,12.47,12.47,69.5,69.5,69.5,6882.24,0.165,0.12,0.066,0.048,0.157,0.232,0.292,1.403,3.342,1.494,2.399,1.68,12.968,0,0,0,20.86159,400.3041,100.1293,247,0.00587777777777777,-0.00427777777777777,276.104264141288,276.104264141288,7.60568766666667,51.9646336666667
"116",2019-12-19 14:08:25,62856,"GPRMC",130819,"A",5157.87803,"N",736.34129,"E",0.16,0,191219,2,"E","51","PTNTHPR,,N,,P,8.8,N*2A","PTNTHPR",NA,"N",NA,"P",8.8,"N","2A",4,0,-0.03,0.07,0.08,14.64,12.48,12.48,12.48,69.43,69.43,69.43,7463.745,0.156,0.141,0.066,0.119,0.091,0.348,0.437,0.647,3.342,2.615,3.199,3.36,3.242,6.256,0,0,20.73379,400.9485,100.149,247,0.0572111111111111,0.0523111111111111,126.770820514232,126.770820514232,7.60568816666667,51.9646338333333
"117",2019-12-19 14:08:26,62857,"GPRMC",130820,"A",5157.87804,"N",736.34133,"E",0.15,0,191219,2,"E","54","PTNTHPR,,N,,P,7.9,N*24","PTNTHPR",NA,"N",NA,"P",7.9,"N","24",6,1,-0.06,-0.01,0.04,14.62,12.47,12.47,12.47,69.41,69.41,69.41,7404.272,0.157,0.129,0.079,0.071,0.104,0.232,0.389,1.079,2.298,1.121,2.399,0,0,6.256,0,23.295,21.41532,399.4596,100.1131,247,0.0172666666666667,0.0171666666666667,210.221838267063,210.221838267063,7.60568883333333,51.964634
"118",2019-12-19 14:08:27,62858,"GPRMC",130821,"A",5157.87805,"N",736.34135,"E",0.14,0,191219,2,"E","53","PTNTHPR,,N,,P,8.0,N*22","PTNTHPR",NA,"N",NA,"P",8,"N","22",2,38,-0.05,-0.02,0.06,14.12,12.47,12.47,12.47,69.39,69.39,69.39,7315.064,0.179,0.127,0.084,0.04,0.118,0.209,0.437,0.971,2.507,2.241,0.8,1.68,0,0,12.069,0,22.09946,398.643,100.1391,247,0.0224222222222222,0.0220222222222222,222.244898606269,222.244898606269,7.60568916666667,51.9646341666667
"119",2019-12-19 14:08:28,62859,"GPRMC",130822,"A",5157.87805,"N",736.34136,"E",0.16,0,191219,2,"E","51","PTNTHPR,,N,,P,8.0,N*22","PTNTHPR",NA,"N",NA,"P",8,"N","22",4,0,-0.06,-0.01,0.02,14.19,12.47,12.47,12.47,69.35,69.35,69.35,7329.932,0.157,0.096,0.106,0.079,0.091,0.301,0.389,0.971,1.462,1.121,6.397,5.039,0,0,0,0,21.66849,401.3665,100.1293,247,0.0224111111111111,0.0223111111111111,204.142264732289,204.142264732289,7.60568933333333,51.9646341666667
"120",2019-12-19 14:08:29,62860,"GPRMC",130823,"A",5157.87805,"N",736.34135,"E",0.06,0,191219,2,"E","52","PTNTHPR,,N,,P,7.1,N*2C","PTNTHPR",NA,"N",NA,"P",7.1,"N","2C",6,1,-0.13,-0.02,0.02,14.21,12.46,12.46,12.46,69.33,69.33,69.33,7329.932,0.158,0.106,0.101,0.055,0.026,0.139,0.389,0.755,1.88,1.868,0.8,0,0,0,0,0,21.38725,403.146,100.1293,247,0.0995333333333333,-0.0991333333333333,348.593772188894,348.593772188894,7.60568916666667,51.9646341666667
"121",2019-12-19 14:08:30,62861,"GPRMC",130824,"A",5157.87806,"N",736.34135,"E",0.06,0,191219,2,"E","56","PTNTHPR,,N,,P,9.3,N*20","PTNTHPR",NA,"N",NA,"P",9.3,"N","20",2,38,-0.08,-0.03,0.09,14.2,12.47,12.47,12.47,69.3,69.3,69.3,7719.805,0.187,0.099,0.092,0.079,0.104,0.209,0.146,0.971,1.253,1.121,0.8,0,0,0,0,23.295,21.19267,402.6377,100.1293,247,0.0500333333333333,-0.0491333333333333,328.592451866324,328.592451866324,7.60568916666667,51.9646343333333
"122",2019-12-19 14:08:31,62862,"GPRMC",130825,"A",5157.87808,"N",736.34134,"E",0.06,0,191219,2,"E","58","PTNTHPR,,N,,P,8.7,N*25","PTNTHPR",NA,"N",NA,"P",8.7,"N","25",4,0,-0.04,-0.04,0.07,14.22,12.46,12.46,12.46,69.27,69.27,69.27,7336.54,0.169,0.103,0.097,0.103,0.078,0.209,0.194,0.755,1.88,1.494,3.199,0,3.242,0,0,0,21.13778,399.7096,100.149,247,0.0107333333333333,-0.00913333333333333,282.862036367149,282.862036367149,7.605689,51.9646346666667
"123",2019-12-19 14:08:32,62863,"GPRMC",130826,"A",5157.87811,"N",736.34134,"E",0.09,0,191219,2,"E","5C","PTNTHPR,,N,,P,8.5,N*27","PTNTHPR",NA,"N",NA,"P",8.5,"N","27",6,1,0,-0.02,0.09,14.1,12.47,12.47,12.47,69.29,69.29,69.29,7077.176,0.151,0.106,0.084,0.063,0.104,0.325,0.194,1.187,1.88,2.988,3.998,3.36,16.21,6.256,0,0,21.18751,397.8683,100.1032,247,0.0467,0.0463,203.362675869449,203.362675869449,7.605689,51.9646351666667
"124",2019-12-19 14:08:33,62864,"GPRMC",130827,"A",5157.87814,"N",736.34134,"E",0.1,0,191219,2,"E","50","PTNTHPR,,N,,P,9.7,N*24","PTNTHPR",NA,"N",NA,"P",9.7,"N","24",2,38,0.02,0,0.15,14.32,12.43,12.43,12.43,69.28,69.28,69.28,7432.329,0.174,0.113,0.075,0.071,0.118,0.278,0.389,0.432,1.462,0.747,4.798,3.36,0,0,0,23.295,21.26521,399.1258,100.1293,247,0.0714444444444444,0.0714444444444444,180,180,7.605689,51.9646356666667
"125",2019-12-19 14:08:34,62865,"GPRMC",130828,"A",5157.87815,"N",736.34134,"E",0.06,0,191219,2,"E","59","PTNTHPR,,N,,P,7.4,N*29","PTNTHPR",NA,"N",NA,"P",7.4,"N","29",4,0,-0.15,-0.03,0.01,14.53,12.44,12.44,12.44,69.28,69.28,69.28,7095.322,0.164,0.096,0.079,0.063,0.118,0.325,0.535,1.079,0.627,2.241,3.998,3.36,0,0,0,0,21.18116,398.08,100.1293,247,0.120033333333333,-0.119133333333333,345.865724891268,345.865724891268,7.605689,51.9646358333333
"126",2019-12-19 14:08:35,62866,"GPRMC",130829,"A",5157.87815,"N",736.34134,"E",0.16,0,191219,2,"E","59","PTNTHPR,,N,,P,8.5,N*27","PTNTHPR",NA,"N",NA,"P",8.5,"N","27",6,1,-0.02,-0.06,0.06,14.51,12.44,12.44,12.44,69.27,69.27,69.27,6925.167,0.174,0.108,0.097,0.119,0.118,0.394,0.146,1.187,1.462,2.988,4.798,3.36,0,6.256,0,23.295,21.15667,399.0883,100.1131,247,0.0659111111111111,0.0623111111111111,223.917505076176,223.917505076176,7.605689,51.9646358333333
"127",2019-12-19 14:08:36,62867,"GPRMC",130830,"A",5157.87815,"N",736.34135,"E",0.08,0,191219,2,"E","5F","PTNTHPR,,N,,P,5.1,N*2E","PTNTHPR",NA,"N",NA,"P",5.1,"N","2E",2,38,-0.04,-0.08,0.13,14.56,12.47,12.47,12.47,69.29,69.29,69.29,6859.086,0.145,0.089,0.084,0.063,0.131,0.348,0.292,0.647,2.089,1.868,3.199,1.68,6.484,0,0,0,21.12758,400.3348,100.1131,247,0.00755555555555556,0.00115555555555556,269.172451846481,269.172451846481,7.60568916666667,51.9646358333333
"128",2019-12-19 14:08:37,62868,"GPRMC",130831,"A",5157.87814,"N",736.34137,"E",0.07,0,191219,2,"E","52","PTNTHPR,,N,,P,11.6,N*1C","PTNTHPR",NA,"N",NA,"P",11.6,"N","1C",4,0,0.11,-0.03,0.12,15.11,12.47,12.47,12.47,69.29,69.29,69.29,6740.143,0.175,0.084,0.07,0.087,0.104,0.232,0.583,0.755,1.671,1.121,1.599,1.68,3.242,0,0,0,21.01149,400.5923,100.1131,247,0.146911111111111,0.146011111111111,191.610626809256,191.610626809256,7.6056895,51.9646356666667
"129",2019-12-19 14:08:38,62869,"GPRMC",130832,"A",5157.87814,"N",736.34139,"E",0.14,0,191219,2,"E","5D","PTNTHPR,,N,,P,7.5,N*28","PTNTHPR",NA,"N",NA,"P",7.5,"N","28",6,1,-0.07,-0.13,0.07,14.4,12.47,12.47,12.47,69.3,69.3,69.3,6905.342,0.17,0.103,0.106,0.119,0.078,0.278,0.437,0.863,1.462,1.868,3.199,0,0,0,0,0,20.91194,400.9605,100.1293,247,0.0189222222222222,0.00202222222222223,269.108804196507,269.108804196507,7.60568983333333,51.9646356666667
"130",2019-12-19 14:08:39,62870,"GPRMC",130833,"A",5157.87814,"N",736.3414,"E",0.13,0,191219,2,"E","55","PTNTHPR,,N,,P,10.3,N*18","PTNTHPR",NA,"N",NA,"P",10.3,"N","18",2,38,0.02,-0.03,0.1,14.77,12.44,12.44,12.44,69.29,69.29,69.29,6903.69,0.127,0.12,0.092,0.048,0.104,0.255,0.243,0.755,2.716,1.868,1.599,3.36,3.242,0,0,23.295,20.88646,400.394,100.149,247,0.0877777777777778,0.0868777777777778,199.050443517427,199.050443517427,7.60569,51.9646356666667
"131",2019-12-19 14:08:40,62871,"GPRMC",130834,"A",5157.87814,"N",736.3414,"E",0.2,0,191219,2,"E","52","PTNTHPR,,N,,P,9.1,N*22","PTNTHPR",NA,"N",NA,"P",9.1,"N","22",4,0,-0.06,0.02,0.1,14.42,12.48,12.48,12.48,69.24,69.24,69.24,7189.486,0.163,0.092,0.088,0.119,0.118,0.255,0.34,0.971,2.089,1.494,5.598,1.68,3.242,0,0,0,20.46858,402.8359,100.1391,247,0.0432888888888889,0.0428888888888889,154.999360643312,154.999360643312,7.60569,51.9646356666667
"132",2019-12-19 14:08:41,62872,"GPRMC",130835,"A",5157.87815,"N",736.3414,"E",0.08,0,191219,2,"E","58","PTNTHPR,,N,,P,9.0,N*23","PTNTHPR",NA,"N",NA,"P",9,"N","23",6,1,0.11,-0.02,0.19,15.59,12.47,12.47,12.47,69.22,69.22,69.22,7303.473,0.165,0.108,0.119,0.063,0.131,0.394,0.292,0.54,1.88,3.735,5.598,1.68,6.484,0,12.069,0,20.27474,403.4006,100.1293,247,0.151555555555556,0.151155555555556,187.537253798365,187.537253798365,7.60569,51.9646358333333
"133",2019-12-19 14:08:42,62873,"GPRMC",130836,"A",5157.87816,"N",736.34139,"E",0.08,0,191219,2,"E","56","PTNTHPR,,N,,P,8.2,N*20","PTNTHPR",NA,"N",NA,"P",8.2,"N","20",2,38,0.13,0.05,0.24,15.35,12.48,12.48,12.48,69.22,69.22,69.22,7191.138,0.176,0.089,0.114,0.103,0.091,0.301,0.243,0.755,1.671,2.241,1.599,0,3.242,0,12.069,0,20.34354,400.561,100.1293,247,0.173655555555556,0.171155555555556,163.715231553584,163.715231553584,7.60568983333333,51.964636
"134",2019-12-19 14:08:43,62874,"GPRMC",130837,"A",5157.87817,"N",736.34138,"E",0.12,0,191219,2,"E","5C","PTNTHPR,,N,,P,8.5,N*27","PTNTHPR",NA,"N",NA,"P",8.5,"N","27",4,0,-0.03,0.01,0.22,14.95,12.47,12.47,12.47,69.22,69.22,69.22,7349.729,0.175,0.129,0.11,0.079,0.118,0.394,0.243,0.755,1.253,1.868,3.199,1.68,3.242,6.256,0,0,20.3746,400.8506,100.1293,247,0.0318333333333333,0.0317333333333333,162.509002687757,162.509002687757,7.60568966666667,51.9646361666667
"135",2019-12-19 14:08:44,62875,"GPRMC",130838,"A",5157.87817,"N",736.34138,"E",0.1,0,191219,2,"E","51","PTNTHPR,,N,,P,8.5,N*27","PTNTHPR",NA,"N",NA,"P",8.5,"N","27",6,1,0.03,0.04,0.29,15.69,12.49,12.49,12.49,69.24,69.24,69.24,7182.877,0.168,0.099,0.119,0.055,0.17,0.325,0.243,0.432,1.88,2.241,3.998,1.68,0,0,0,0,20.15952,400.8957,100.0934,247,0.0830444444444445,0.0814444444444445,153.842852738436,153.842852738436,7.60568966666667,51.9646361666667
"136",2019-12-19 14:08:45,62876,"GPRMC",130839,"A",5157.87818,"N",736.34137,"E",0.09,0,191219,2,"E","58","PTNTHPR,,N,,P,8.6,N*24","PTNTHPR",NA,"N",NA,"P",8.6,"N","24",2,38,0.07,-0.11,0.19,15.28,12.48,12.48,12.48,69.19,69.19,69.19,7376.161,0.164,0.103,0.075,0.095,0.157,0.209,0.243,0.647,1.044,2.615,3.199,5.039,0,6.256,0,0,20.11773,399.3042,100.1131,247,0.1284,0.1163,223.405345986827,223.405345986827,7.6056895,51.9646363333333
"137",2019-12-19 14:08:46,62877,"GPRMC",130840,"A",5157.87819,"N",736.34137,"E",0.07,0,191219,2,"E","59","PTNTHPR,,N,,P,8.6,N*24","PTNTHPR",NA,"N",NA,"P",8.6,"N","24",4,0,-0.03,0.07,0.22,15.18,12.49,12.49,12.49,69.19,69.19,69.19,7134.97,0.164,0.096,0.097,0.095,0.183,0.232,0.292,1.403,2.089,2.988,3.998,1.68,3.242,12.511,0,0,20.14599,399.3127,100.1293,247,0.0109111111111111,0.00601111111111112,94.9081205700403,94.9081205700403,7.6056895,51.9646365
"138",2019-12-19 14:08:47,62878,"GPRMC",130841,"A",5157.8782,"N",736.34138,"E",0.11,0,191219,2,"E","5A","PTNTHPR,,N,,P,9.1,N*22","PTNTHPR",NA,"N",NA,"P",9.1,"N","22",6,1,-0.09,0,0.12,14.42,12.48,12.48,12.48,69.19,69.19,69.19,7268.781,0.161,0.12,0.057,0.087,0.131,0.301,0.34,1.295,1.253,2.988,1.599,1.68,0,6.256,0,0,20.09414,399.2819,100.1293,247,0.0334111111111111,-0.0334111111111111,0,0,7.60568966666667,51.9646366666667
"139",2019-12-19 14:08:48,62879,"GPRMC",130842,"A",5157.8782,"N",736.34139,"E",0.35,0,191219,2,"E","5E","PTNTHPR,,N,,P,8.6,N*24","PTNTHPR",NA,"N",NA,"P",8.6,"N","24",2,38,0,-0.02,0.23,15.13,12.49,12.49,12.49,69.18,69.18,69.18,7462.065,0.193,0.101,0.119,0.135,0.052,0.232,0.243,0.647,2.089,1.494,5.598,5.039,6.484,12.511,12.069,0,20.28498,400.7162,100.1131,247,0.180455555555556,0.180055555555556,186.338251423532,186.338251423532,7.60568983333333,51.9646366666667
"140",2019-12-19 14:08:49,62880,"GPRMC",130843,"A",5157.8782,"N",736.34139,"E",0.48,0,191219,2,"E","55","PTNTHPR,,N,,P,7.7,N*2A","PTNTHPR",NA,"N",NA,"P",7.7,"N","2A",4,0,0.04,-0.02,0.17,15.35,12.47,12.47,12.47,69.19,69.19,69.19,7584.313,0.159,0.077,0.07,0.079,0.104,0.162,0.292,0.971,1.462,4.109,3.199,1.68,0,6.256,12.069,46.591,20.39198,403.1406,100.1131,247,0.287333333333333,0.286933333333333,183.987216039984,183.987216039984,7.60568983333333,51.9646366666667
