"TIMESTAMP","RECORD","rmcid","rmcutc","rmcstatus","rmclatitude","rmcin_s_ind","rmclongitude","rmce_w_indicator","rmcspeed","rmccourse","rmcutcdate","rmcmagvariation","rmcmage_w","rmcchecksum","HMR3000string","compass_mode","compass_heading","compass_headingstat","compass_pitch","compass_pitchstat","compass_roll","compass_rollstat","compass_checksum","Gill_Adr","Gill_Diag","u","v","w","Ts","AirTC_Min","AirTC_Max","AirTC_Avg","RH_Min","RH_Max","RH_Avg","CPC_aux","LiveBin_1dM","LiveBin_2dM","LiveBin_3dM","LiveBin_4dM","LiveBin_5dM","LiveBin_6dM","LiveBin_7dM","LiveBin_8dM","LiveBin_9dM","LiveBin_10dM","LiveBin_11dM","LiveBin_12dM","LiveBin_13dM","LiveBin_14dM","LiveBin_15dM","LiveBin_16dM","CO2","H2O","P_LI75","diag_LI75","lon","lat","wind.speed"
"935",2019-11-14 14:35:00,36625,"GPRMC",133456.8,"A",5157.77314,"N",736.9675,"E",8.27,182.2,141119,2,"E","52","PTNTHPR,179.3,N,3.2,N,0.8,N*31","PTNTHPR",179.3,"N",3.2,"N",0.8,"N","31",1,10,-2.08,-0.98,1.1,7.99,8.12,8.12,8.12,67.14,67.14,67.14,12088.5,0.691,0.23,0.123,0.079,0.17,0.07,0,0.108,0.209,0,0.8,1.68,3.242,0,0,0,17.54349,295.5017,99.67047,247,7.616125,51.9628856666667,3.13485555555556
"936",2019-11-14 14:35:01,36626,"GPRMC",133457.8,"A",5157.77086,"N",736.96744,"E",8.19,181,141119,2,"E","52","PTNTHPR,177.2,N,3.5,N,-0.3,N*1F","PTNTHPR",177.2,"N",3.5,"N",-0.3,"N","1F",3,0,-2.52,-1.99,-0.13,7.86,8.11,8.11,8.11,67.14,67.14,67.14,12308.2,0.67,0.277,0.097,0.071,0.131,0.162,0.097,0.108,0.836,0,0,1.68,0,6.256,0,0,17.54795,300.4658,99.67047,247,7.616124,51.9628476666667,5.6534
"937",2019-11-14 14:35:02,36627,"GPRMC",133458.9,"A",5157.76837,"N",736.96724,"E",7.99,184.2,141119,2,"E","59","PTNTHPR,175.8,N,3.2,N,0.5,N*3B","PTNTHPR",175.8,"N",3.2,"N",0.5,"N","3B",5,0,-1.95,-1.41,-1.09,7.86,8.1,8.1,8.1,67.13,67.13,67.13,11754.82,0.653,0.289,0.097,0.024,0.078,0.07,0.097,0.432,0.627,0,0,1.68,0,0,0,0,17.55678,292.6552,99.66079,247,7.61612066666667,51.9628061666667,4.14851111111111
"938",2019-11-14 14:35:03,36628,"GPRMC",133459.9,"A",5157.76616,"N",736.96687,"E",7.96,185,141119,2,"E","51","PTNTHPR,176.5,N,2.4,N,0.1,N*36","PTNTHPR",176.5,"N",2.4,"N",0.1,"N","36",1,10,-3.13,-1.56,0.67,7.82,8.12,8.12,8.12,67.17,67.17,67.17,14591.11,0.653,0.272,0.163,0.055,0.078,0.07,0.049,0.216,0.627,0.374,0,1.68,0,0,0,0,17.729,299.9384,99.65112,247,7.6161145,51.9627693333333,3.39857777777778
"939",2019-11-14 14:35:04,36629,"GPRMC",133500.9,"A",5157.76404,"N",736.96673,"E",7.74,180.9,141119,2,"E","56","PTNTHPR,178.9,N,2.6,N,0.5,N*32","PTNTHPR",178.9,"N",2.6,"N",0.5,"N","32",3,0,-2.84,-1.16,0.15,7.86,8.11,8.11,8.11,67.16,67.16,67.16,13637.97,0.649,0.246,0.101,0.095,0.052,0.185,0.097,0.432,1.044,0,0,1.68,0,0,0,0,17.56045,297.2838,99.68682,247,7.61611216666667,51.962734,2.4874
"940",2019-11-14 14:35:05,36630,"GPRMC",133501.9,"A",5157.76178,"N",736.96678,"E",7.94,181.9,141119,2,"E","5D","PTNTHPR,175.4,N,2.4,N,1.2,N*36","PTNTHPR",175.4,"N",2.4,"N",1.2,"N","36",5,0,-2.01,0.32,0.59,7.98,8.1,8.1,8.1,67.23,67.23,67.23,13706.01,0.663,0.289,0.114,0.063,0.091,0.093,0.097,0.216,0.209,0.747,0,0,3.242,0,0,0,17.64496,290.3421,99.65112,247,7.616113,51.9626963333333,2.17708888888889
"941",2019-11-14 14:35:06,36631,"GPRMC",133502.9,"A",5157.75957,"N",736.96656,"E",7.84,181.7,141119,2,"E","5B","PTNTHPR,178.4,N,3.0,N,-0.6,N*16","PTNTHPR",178.4,"N",3,"N",-0.6,"N","16",1,10,-1.08,0.03,0.94,7.91,8.11,8.11,8.11,67.26,67.26,67.26,13340.93,0.672,0.324,0.106,0.055,0.065,0.07,0.194,0.324,0.209,0,0.8,0,0,0,0,0,17.67332,292.6346,99.70621,247,7.61610933333333,51.9626595,2.95414444444444
"942",2019-11-14 14:35:07,36632,"GPRMC",133503.9,"A",5157.75735,"N",736.96653,"E",7.8,182.6,141119,2,"E","53","PTNTHPR,177.5,N,2.5,N,0.8,N*3F","PTNTHPR",177.5,"N",2.5,"N",0.8,"N","3F",3,0,-1.55,-1.02,-0.01,7.99,8.1,8.1,8.1,67.3,67.3,67.3,14014.92,0.7,0.256,0.145,0.063,0.013,0.162,0.146,0.54,0.627,0.747,2.399,0,0,0,0,0,17.81572,304.5943,99.71284,247,7.61610883333333,51.9626225,3.50306666666667
"943",2019-11-14 14:35:08,36633,"GPRMC",133504.8,"A",5157.75536,"N",736.96637,"E",7.95,186.9,141119,2,"E","59","PTNTHPR,178.9,N,3.3,N,0.1,N*32","PTNTHPR",178.9,"N",3.3,"N",0.1,"N","32",5,0,-2.4,-0.97,0.09,8.09,8.13,8.13,8.13,67.34,67.34,67.34,15488.43,0.674,0.291,0.106,0.119,0.052,0.023,0.194,0.108,0,1.121,1.599,0,3.242,6.256,0,0,17.76698,298.4028,99.68682,247,7.61610616666667,51.9625893333333,2.63073333333333
"944",2019-11-14 14:35:09,36634,"GPRMC",133505.8,"A",5157.75323,"N",736.96589,"E",7.74,187.9,141119,2,"E","52","PTNTHPR,182.4,N,3.3,N,0.2,N*39","PTNTHPR",182.4,"N",3.3,"N",0.2,"N","39",1,10,-3.57,-0.42,0.23,8.19,8.13,8.13,8.13,67.47,67.47,67.47,14961.47,0.69,0.31,0.097,0.079,0.104,0.185,0.146,0.216,0.627,0.374,0,1.68,0,0,0,0,17.69491,287.5389,99.65112,247,7.61609816666667,51.9625538333333,0.5882
"945",2019-11-14 14:35:10,36635,"GPRMC",133506.9,"A",5157.75085,"N",736.96566,"E",7.54,183.9,141119,2,"E","58","PTNTHPR,184.4,N,3.8,N,0.8,N*3E","PTNTHPR",184.4,"N",3.8,"N",0.8,"N","3E",3,0,-3.9,-1.21,0.01,7.86,8.13,8.13,8.13,67.49,67.49,67.49,17513.69,0.662,0.258,0.128,0.079,0.091,0.139,0.049,0.324,0.836,0.374,0,1.68,0,0,0,0,17.66052,289.1088,99.67047,247,7.61609433333333,51.9625141666667,1.48518888888889
"946",2019-11-14 14:35:11,36636,"GPRMC",133507.9,"A",5157.74879,"N",736.96563,"E",6.94,182.5,141119,2,"E","56","PTNTHPR,182.5,N,2.4,N,0.6,N*3A","PTNTHPR",182.5,"N",2.4,"N",0.6,"N","3A",5,0,-2.33,-1.04,-0.56,7.92,8.12,8.12,8.12,67.46,67.46,67.46,17284.07,0.653,0.258,0.132,0.071,0.078,0.162,0.243,0.108,0,1.121,0.8,0,0,0,0,0,17.68701,298.4817,99.68682,247,7.61609383333333,51.9624798333333,2.32184444444445
"947",2019-11-14 14:35:12,36637,"GPRMC",133508.9,"A",5157.74677,"N",736.96596,"E",7.06,176,141119,2,"E","57","PTNTHPR,188.7,N,2.5,N,-0.3,N*1B","PTNTHPR",188.7,"N",2.5,"N",-0.3,"N","1B",1,10,-1.84,-1.11,0.23,7.9,8.1,8.1,8.1,67.42,67.42,67.42,16292.92,0.697,0.251,0.15,0.111,0.065,0.07,0.097,0.108,1.044,0.374,0,0,0,0,0,0,17.73194,296.8887,99.68682,247,7.61609933333333,51.9624461666667,3.02407777777778
"948",2019-11-14 14:35:13,36638,"GPRMC",133509.9,"A",5157.74484,"N",736.96578,"E",7.06,190.6,141119,2,"E","56","PTNTHPR,179.5,N,3.0,N,1.0,N*3C","PTNTHPR",179.5,"N",3,"N",1,"N","3C",3,0,-2.17,-1.05,-0.16,7.85,8.12,8.12,8.12,67.46,67.46,67.46,12640.52,0.597,0.221,0.11,0.063,0.026,0.046,0.097,0.108,0.418,0,1.599,0,0,0,0,0,17.719,297.2309,99.68682,247,7.61609633333333,51.962414,2.56447777777778
"949",2019-11-14 14:35:14,36639,"GPRMC",133510.9,"A",5157.74317,"N",736.96462,"E",6.66,211.3,141119,2,"E","51","PTNTHPR,185.7,N,1.3,N,-2.4,N*16","PTNTHPR",185.7,"N",1.3,"N",-2.4,"N","16",5,0,-2.98,-1.86,0.51,7.69,8.1,8.1,8.1,67.44,67.44,67.44,13003.94,0.651,0.279,0.088,0.095,0.052,0.162,0.146,0.216,0.418,0,0,0,3.242,0,0,0,17.55008,288.3723,99.69652,247,7.616077,51.9623861666667,3.9058
"950",2019-11-14 14:35:15,36640,"GPRMC",133511.8,"A",5157.74197,"N",736.96261,"E",6.61,231.6,141119,2,"E","5E","PTNTHPR,196.7,N,1.1,N,-0.2,N*12","PTNTHPR",196.7,"N",1.1,"N",-0.2,"N","12",1,10,-3.37,-1.81,-0.03,7.57,8.11,8.11,8.11,67.47,67.47,67.47,14297.4,0.702,0.244,0.092,0.04,0.026,0.116,0.097,0.647,0,0.374,0,0,3.242,0,12.069,0,17.73641,288.8841,99.69652,247,7.6160435,51.9623661666667,3.30657777777778
"951",2019-11-14 14:35:16,36641,"GPRMC",133512.8,"A",5157.74077,"N",736.96021,"E",7.02,231.9,141119,2,"E","5F","PTNTHPR,220.4,N,4.1,N,1.2,N*36","PTNTHPR",220.4,"N",4.1,"N",1.2,"N","36",3,0,-3.5,-1.25,0.33,7.72,8.12,8.12,8.12,67.44,67.44,67.44,15642.06,0.664,0.291,0.097,0.055,0.091,0.116,0.146,0.108,0.627,0,0.8,1.68,0,0,0,0,17.81478,281.7632,99.68682,247,7.6160035,51.9623461666667,1.6739
"952",2019-11-14 14:35:17,36642,"GPRMC",133513.9,"A",5157.73935,"N",736.95721,"E",7.62,237.1,141119,2,"E","5B","PTNTHPR,237.3,N,5.8,N,1.9,N*34","PTNTHPR",237.3,"N",5.8,"N",1.9,"N","34",5,0,-2.04,-1.49,0.79,7.81,8.13,8.13,8.13,67.45,67.45,67.45,13950.49,0.662,0.253,0.075,0.087,0.013,0.07,0.146,0.432,0.418,0.747,0.8,0,0,0,0,0,17.74936,290.4232,99.68682,247,7.6159535,51.9623225,4.10016666666667
"953",2019-11-14 14:35:18,36643,"GPRMC",133514.9,"A",5157.73835,"N",736.95417,"E",7.64,244.2,141119,2,"E","5A","PTNTHPR,252.4,N,6.3,N,1.1,N*30","PTNTHPR",252.4,"N",6.3,"N",1.1,"N","30",1,10,-2.36,-2.06,-0.6,7.69,8.13,8.13,8.13,67.4,67.4,67.4,13245.12,0.627,0.286,0.088,0.055,0.039,0.162,0,0.324,0.627,0.747,0.8,0,0,0,0,0,17.7307,296.7345,99.71284,247,7.61590283333333,51.9623058333333,5.81395555555556
"954",2019-11-14 14:35:19,36644,"GPRMC",133515.9,"A",5157.73734,"N",736.95111,"E",7.4,240,141119,2,"E","56","PTNTHPR,247.7,N,6.2,N,-0.2,N*19","PTNTHPR",247.7,"N",6.2,"N",-0.2,"N","19",3,0,-1.99,-1.02,-0.74,7.85,8.12,8.12,8.12,67.38,67.38,67.38,13876.16,0.65,0.307,0.114,0.071,0.065,0.162,0.049,0.432,0.418,0.747,0.8,0,3.242,0,0,0,17.67694,297.4872,99.68682,247,7.61585183333333,51.962289,2.85728888888889
"955",2019-11-14 14:35:20,36645,"GPRMC",133516.9,"A",5157.73629,"N",736.94824,"E",7.27,237.7,141119,2,"E","50","PTNTHPR,245.8,N,3.9,N,1.7,N*33","PTNTHPR",245.8,"N",3.9,"N",1.7,"N","33",5,0,-2.19,-0.64,0,7.68,8.14,8.14,8.14,67.33,67.33,67.33,13281.46,0.69,0.286,0.106,0.135,0.026,0.116,0.049,0.108,0.836,0.374,0.8,0,0,0,0,0,17.81778,301.7099,99.68682,247,7.615804,51.9622715,1.95961111111111
"956",2019-11-14 14:35:21,36646,"GPRMC",133517.9,"A",5157.73532,"N",736.94556,"E",6.68,240.5,141119,2,"E","58","PTNTHPR,242.2,N,3.2,N,0.8,N*3B","PTNTHPR",242.2,"N",3.2,"N",0.8,"N","3B",1,10,-1.32,-0.34,0.07,7.78,8.13,8.13,8.13,67.32,67.32,67.32,13740.7,0.628,0.26,0.114,0.063,0.104,0.116,0.049,0.108,0.418,0.747,0.8,0,0,6.256,0,0,17.74465,300.1038,99.68682,247,7.61575933333333,51.9622553333333,2.23208888888889
"957",2019-11-14 14:35:22,36647,"GPRMC",133518.8,"A",5157.73437,"N",736.9433,"E",6.68,237.1,141119,2,"E","50","PTNTHPR,240.0,N,2.4,N,0.0,N*34","PTNTHPR",240,"N",2.4,"N",0,"N","34",3,0,-1.47,-0.44,0.36,7.92,8.1,8.1,8.1,67.31,67.31,67.31,12970.9,0.703,0.258,0.11,0.079,0.052,0.162,0.146,0.324,0.418,0.374,0,1.68,0,0,0,0,17.67163,296.7909,99.68682,247,7.61572166666667,51.9622395,2.16008888888889
"958",2019-11-14 14:35:23,36648,"GPRMC",133519.9,"A",5157.73292,"N",736.94083,"E",6.54,232.7,141119,2,"E","5E","PTNTHPR,243.1,N,3.0,N,1.3,N*31","PTNTHPR",243.1,"N",3,"N",1.3,"N","31",5,0,-1.6,0.16,0.62,7.85,8.1,8.1,8.1,67.34,67.34,67.34,13099.75,0.681,0.209,0.088,0.063,0.104,0.116,0,0.432,0,1.121,0,0,0,0,0,0,17.7822,292.8802,99.67047,247,7.6156805,51.9622153333333,1.79006666666667
"959",2019-11-14 14:35:24,36649,"GPRMC",133520.9,"A",5157.73197,"N",736.93919,"E",5.45,232.2,141119,2,"E","59","PTNTHPR,240.2,N,3.8,N,0.8,N*33","PTNTHPR",240.2,"N",3.8,"N",0.8,"N","33",1,10,-2.28,-0.31,-0.1,7.85,8.09,8.09,8.09,67.37,67.37,67.37,12850.31,0.663,0.249,0.066,0.071,0.013,0.093,0.097,0.324,0.627,0,0,0,0,0,0,0,17.71173,292.5407,99.67047,247,7.61565316666667,51.9621995,0.619822222222223
"960",2019-11-14 14:35:25,36650,"GPRMC",133521.9,"A",5157.73072,"N",736.93683,"E",5.86,235.6,141119,2,"E","52","PTNTHPR,235.5,N,2.3,N,0.6,N*32","PTNTHPR",235.5,"N",2.3,"N",0.6,"N","32",3,0,-2.54,-0.55,0.09,7.85,8.12,8.12,8.12,67.4,67.4,67.4,12572.79,0.641,0.279,0.11,0.079,0.052,0.139,0.146,0.324,0.418,0.374,0.8,0,0,0,0,0,17.75462,294.3131,99.67047,247,7.61561383333333,51.9621786666667,0.777144444444445
"961",2019-11-14 14:35:26,36651,"GPRMC",133522.9,"A",5157.72991,"N",736.9349,"E",5.4,233.4,141119,2,"E","5A","PTNTHPR,236.6,N,2.6,N,0.1,N*30","PTNTHPR",236.6,"N",2.6,"N",0.1,"N","30",5,0,-1.65,-0.75,0.31,7.73,8.11,8.11,8.11,67.42,67.42,67.42,13311.2,0.644,0.251,0.141,0.048,0.052,0.116,0.049,0.216,1.044,0.374,0.8,0,0,0,12.069,0,17.70225,300.6168,99.67047,247,7.61558166666667,51.9621651666667,1.6905
"962",2019-11-14 14:35:27,36652,"GPRMC",133523.9,"A",5157.7291,"N",736.93281,"E",4.94,234.8,141119,2,"E","57","PTNTHPR,236.1,N,2.8,N,1.5,N*3C","PTNTHPR",236.1,"N",2.8,"N",1.5,"N","3C",1,10,-1.43,-0.2,-0.03,7.64,8.11,8.11,8.11,67.45,67.45,67.45,14769.85,0.724,0.286,0.092,0.079,0.052,0.046,0.049,0.324,0.418,0.374,0.8,0,0,0,0,0,18.11697,293.7184,99.68682,247,7.61554683333333,51.9621516666667,1.15135555555556
"963",2019-11-14 14:35:28,36653,"GPRMC",133524.8,"A",5157.72833,"N",736.93127,"E",4.77,229.2,141119,2,"E","55","PTNTHPR,236.1,N,2.5,N,0.3,N*36","PTNTHPR",236.1,"N",2.5,"N",0.3,"N","36",3,0,-1.79,-0.95,0.17,7.78,8.11,8.11,8.11,67.49,67.49,67.49,14485.72,0.643,0.235,0.079,0.048,0.104,0.116,0.097,0.324,0.627,0,2.399,1.68,0,0,0,0,17.69426,295.5629,99.67047,247,7.61552116666667,51.9621388333333,1.5664
"964",2019-11-14 14:35:29,36654,"GPRMC",133525.8,"A",5157.72719,"N",736.92984,"E",3.86,219.9,141119,2,"E","52","PTNTHPR,235.1,N,2.2,N,0.2,N*33","PTNTHPR",235.1,"N",2.2,"N",0.2,"N","33",5,0,-1.55,-0.72,0.14,7.53,8.11,8.11,8.11,67.49,67.49,67.49,15065.54,0.666,0.3,0.084,0.079,0.091,0.023,0,0.216,0.836,0.374,0,1.68,0,0,0,0,17.75949,293.6594,99.66079,247,7.61549733333333,51.9621198333333,0.954155555555556
"965",2019-11-14 14:35:30,36655,"GPRMC",133526.8,"A",5157.72606,"N",736.92898,"E",4.1,202.1,141119,2,"E","58","PTNTHPR,227.6,N,2.6,N,1.7,N*37","PTNTHPR",227.6,"N",2.6,"N",1.7,"N","37",1,10,-1.57,-0.09,-0.41,7.8,8.12,8.12,8.12,67.56,67.56,67.56,15075.45,0.656,0.209,0.092,0.087,0.065,0.116,0.097,0.216,0.627,1.494,1.599,0,0,0,0,0,17.69242,296.003,99.68682,247,7.615483,51.962101,0.547322222222222
"966",2019-11-14 14:35:31,36656,"GPRMC",133527.9,"A",5157.72505,"N",736.92797,"E",4.32,213.5,141119,2,"E","5C","PTNTHPR,214.4,N,5.1,N,1.2,N*30","PTNTHPR",214.4,"N",5.1,"N",1.2,"N","30",3,0,-2.63,0.19,0.29,7.83,8.09,8.09,8.09,67.61,67.61,67.61,16079.82,0.661,0.286,0.101,0.151,0.026,0.093,0.097,0.324,0.209,0.747,0,1.68,0,0,0,0,17.65983,296.7159,99.68682,247,7.61546616666667,51.9620841666667,0.4437
"967",2019-11-14 14:35:32,36657,"GPRMC",133528.9,"A",5157.72384,"N",736.92623,"E",5.18,218.3,141119,2,"E","56","5,N*34  216.6,N,1.8,N,-1.2,N*10","5",NA,"N",1.8,"N",-1.2,"N","10",5,0,-1.94,0.2,0.7,7.88,8.1,8.1,8.1,67.7,67.7,67.7,14371.73,0.686,0.289,0.053,0.071,0.039,0.046,0.049,0.108,0,0,0,0,0,0,0,0,17.70551,300.6902,99.66079,247,7.61543716666667,51.962064,0.764822222222223
"968",2019-11-14 14:35:33,36658,"GPRMC",133529.9,"A",5157.72291,"N",736.92385,"E",6.16,246.8,141119,2,"E","56","PTNTHPR,221.9,N,4.8,N,0.6,N*36","PTNTHPR",221.9,"N",4.8,"N",0.6,"N","36",1,10,-2.85,0.38,0.36,7.8,8.07,8.07,8.07,67.7,67.7,67.7,15073.8,0.69,0.235,0.11,0.063,0.078,0.093,0.243,0.54,0.418,0.747,1.599,0,0,0,0,0,17.7248,300.4243,99.68682,247,7.6153975,51.9620485,0.463377777777778
"969",2019-11-14 14:35:34,36659,"GPRMC",133530.9,"A",5157.72242,"N",736.92083,"E",6.99,257.1,141119,2,"E","5B","PTNTHPR,239.5,N,5.7,N,-1.0,N*17","PTNTHPR",239.5,"N",5.7,"N",-1,"N","17",3,0,-2.62,0.49,0.08,7.86,8.09,8.09,8.09,67.73,67.73,67.73,18260.36,0.608,0.268,0.106,0.119,0.039,0.093,0.097,0.108,0.418,1.121,0.8,0,3.242,0,0,0,17.63076,299.6067,99.68682,247,7.61534716666667,51.9620403333333,1.21606666666667
"970",2019-11-14 14:35:35,36660,"GPRMC",133531.9,"A",5157.72211,"N",736.91741,"E",6.96,265.9,141119,2,"E","50","PTNTHPR,255.2,N,7.0,N,1.0,N*32","PTNTHPR",255.2,"N",7,"N",1,"N","32",5,0,-2.57,0.62,0.14,7.56,8.1,8.1,8.1,67.73,67.73,67.73,15091.97,0.655,0.279,0.106,0.048,0.039,0.116,0.292,0.216,0.418,0,0.8,0,0,0,0,0,17.60154,298.832,99.68682,247,7.61529016666667,51.9620351666667,1.39493333333333
"971",2019-11-14 14:35:36,36661,"GPRMC",133532.8,"A",5157.72216,"N",736.91447,"E",6.58,275.5,141119,2,"E","5F","PTNTHPR,271.0,N,6.0,N,3.6,N*33","PTNTHPR",271,"N",6,"N",3.6,"N","33",1,10,-2.29,0.09,0.33,7.79,8.08,8.08,8.08,67.69,67.69,67.69,16248.32,0.617,0.242,0.119,0.032,0.131,0.116,0.049,0.324,0.209,0,2.399,0,0,0,0,0,17.63011,290.2666,99.68682,247,7.61524116666667,51.962036,1.10314444444444
"972",2019-11-14 14:35:37,36662,"GPRMC",133533.8,"A",5157.72215,"N",736.91125,"E",6.14,277.4,141119,2,"E","57","PTNTHPR,268.4,N,1.2,N,0.5,N*3A","PTNTHPR",268.4,"N",1.2,"N",0.5,"N","3A",3,0,-1.93,-0.1,0.3,7.73,8.05,8.05,8.05,67.66,67.66,67.66,15866.72,0.657,0.277,0.097,0.087,0.052,0.116,0.097,0.432,0.209,0.374,1.599,1.68,0,0,12.069,0,17.86398,281.581,99.67047,247,7.6151875,51.9620358333333,1.23868888888889
"973",2019-11-14 14:35:38,36663,"GPRMC",133534.9,"A",5157.7223,"N",736.90811,"E",5.38,278.1,141119,2,"E","5E","PTNTHPR,273.7,N,1.0,N,1.0,N*35","PTNTHPR",273.7,"N",1,"N",1,"N","35",5,0,-2.04,-0.46,0.22,7.83,8.11,8.11,8.11,67.68,67.68,67.68,16763.72,0.719,0.268,0.136,0.119,0.065,0.162,0.049,0.324,0.418,0,0.8,0,0,0,0,0,17.85361,286.3015,99.67047,247,7.61513516666667,51.9620383333333,0.939311111111111
"974",2019-11-14 14:35:39,36664,"GPRMC",133535.9,"A",5157.72228,"N",736.9058,"E",4.94,276.9,141119,2,"E","52","PTNTHPR,285.5,N,0.8,N,0.5,N*33","PTNTHPR",285.5,"N",0.8,"N",0.5,"N","33",1,10,-1.32,-0.63,0.47,7.76,8.09,8.09,8.09,67.69,67.69,67.69,14489.02,0.653,0.258,0.101,0.04,0.026,0.093,0.097,0,0.209,0.747,0,0,0,0,0,0,17.68085,289.3586,99.67047,247,7.61509666666667,51.962038,1.61825555555556
"975",2019-11-14 14:35:40,36665,"GPRMC",133536.9,"A",5157.72228,"N",736.90327,"E",4.78,273.2,141119,2,"E","56","PTNTHPR,292.2,N,-0.8,N,1.0,N*1B","PTNTHPR",292.2,"N",-0.8,"N",1,"N","1B",3,0,-1.34,-0.15,0.26,7.78,8.09,8.09,8.09,67.69,67.69,67.69,14502.24,0.679,0.289,0.106,0.071,0,0.162,0.049,0,0.836,0.374,0,0,0,0,0,0,17.65292,287.8724,99.67047,247,7.6150545,51.962038,1.14154444444444
"976",2019-11-14 14:35:41,36666,"GPRMC",133537.9,"A",5157.72228,"N",736.90087,"E",4.77,273.4,141119,2,"E","57","PTNTHPR,281.4,N,3.1,N,0.0,N*39","PTNTHPR",281.4,"N",3.1,"N",0,"N","39",5,0,-1.87,-0.28,0.57,7.68,8.07,8.07,8.07,67.71,67.71,67.71,14277.57,0.664,0.265,0.158,0.055,0.065,0.116,0.097,0.324,0.627,0,0,0,0,6.256,12.069,0,17.63966,292.5487,99.67047,247,7.6150145,51.962038,0.6623
"977",2019-11-14 14:35:42,36667,"GPRMC",133538.9,"A",5157.72221,"N",736.89822,"E",4.77,269.8,141119,2,"E","59","PTNTHPR,281.2,N,3.5,N,0.6,N*3D","PTNTHPR",281.2,"N",3.5,"N",0.6,"N","3D",1,10,-1.89,-0.45,0.77,7.9,8.08,8.08,8.08,67.69,67.69,67.69,13512.73,0.68,0.268,0.088,0.032,0.078,0.07,0.049,0.216,0.836,0.747,0.8,1.68,0,0,0,0,17.85812,287.5975,99.66079,247,7.61497033333333,51.9620368333333,0.7664
"978",2019-11-14 14:35:43,36668,"GPRMC",133539.9,"A",5157.72219,"N",736.89615,"E",4.98,267,141119,2,"E","5E","PTNTHPR,281.5,N,4.5,N,-0.4,N*12","PTNTHPR",281.5,"N",4.5,"N",-0.4,"N","12",3,0,-1.28,-0.01,0.32,7.81,8.09,8.09,8.09,67.65,67.65,67.65,14682.29,0.629,0.258,0.101,0.087,0.065,0.046,0.194,0,0.209,0,0,1.68,0,0,0,0,17.6886,287.452,99.68682,247,7.61493583333333,51.9620365,1.28203333333333
"979",2019-11-14 14:35:44,36669,"GPRMC",133540.8,"A",5157.72205,"N",736.89393,"E",4.79,265.9,141119,2,"E","53","PTNTHPR,282.2,N,4.6,N,1.7,N*3A","PTNTHPR",282.2,"N",4.6,"N",1.7,"N","3A",5,0,-1.66,0.12,0.44,7.9,8.08,8.08,8.08,67.62,67.62,67.62,13933.97,0.681,0.258,0.106,0.071,0.091,0.07,0.146,0,0.836,0.374,0,1.68,0,0,12.069,0,17.81253,286.8416,99.67047,247,7.61489883333333,51.9620341666667,0.818588888888889
"980",2019-11-14 14:35:45,36670,"GPRMC",133541.8,"A",5157.72207,"N",736.89146,"E",5.09,281.5,141119,2,"E","5A","PTNTHPR,281.6,N,3.8,N,1.9,N*3A","PTNTHPR",281.6,"N",3.8,"N",1.9,"N","3A",1,10,-2.15,-0.18,0.7,7.73,8.11,8.11,8.11,67.63,67.63,67.63,13502.82,0.662,0.284,0.106,0.055,0.013,0,0.097,0.432,0.209,1.121,0.8,0,0,0,0,0,17.70222,300.2068,99.68682,247,7.61485766666667,51.9620345,0.500922222222222
"981",2019-11-14 14:35:46,36671,"GPRMC",133542.9,"A",5157.72259,"N",736.88879,"E",5.56,282.6,141119,2,"E","5D","PTNTHPR,277.7,N,1.2,N,-0.8,N*17","PTNTHPR",277.7,"N",1.2,"N",-0.8,"N","17",3,0,-2.6,0.45,0.17,7.77,8.09,8.09,8.09,67.63,67.63,67.63,13268.25,0.683,0.284,0.11,0.063,0.078,0.116,0.194,0.432,0.209,0,0,0,0,0,0,0,17.69668,300.1857,99.68682,247,7.61481316666667,51.9620431666667,0.462811111111111
"982",2019-11-14 14:35:47,36672,"GPRMC",133543.9,"A",5157.72264,"N",736.8865,"E",5.35,270.1,141119,2,"E","58","PTNTHPR,279.6,N,3.3,N,-0.1,N*12","PTNTHPR",279.6,"N",3.3,"N",-0.1,"N","12",5,0,-1.68,-0.24,0.31,7.85,8.08,8.08,8.08,67.7,67.7,67.7,14069.43,0.692,0.249,0.106,0.048,0.039,0.232,0.097,0.324,0.627,0.374,0,3.36,3.242,0,0,0,17.69402,300.2944,99.65112,247,7.614775,51.962044,1.12987777777778
"983",2019-11-14 14:35:48,36673,"GPRMC",133544.9,"A",5157.7226,"N",736.88396,"E",5.36,267.5,141119,2,"E","55","PTNTHPR,290.3,N,2.7,N,2.5,N*3E","PTNTHPR",290.3,"N",2.7,"N",2.5,"N","3E",1,10,-1.58,0.1,-0.15,7.72,8.07,8.07,8.07,67.78,67.78,67.78,14996.16,0.622,0.218,0.114,0.111,0.052,0.232,0.146,0,0.627,0,0.8,0,6.484,0,0,0,17.71453,298.3252,99.67047,247,7.61473266666667,51.9620433333333,1.18742222222222
"984",2019-11-14 14:35:49,36674,"GPRMC",133545.9,"A",5157.72259,"N",736.88119,"E",5.2,266.2,141119,2,"E","5A","PTNTHPR,277.8,N,1.8,N,-0.2,N*18","PTNTHPR",277.8,"N",1.8,"N",-0.2,"N","18",3,0,-1.79,-0.17,0.08,7.73,8.08,8.08,8.08,67.88,67.88,67.88,15567.88,0.683,0.242,0.101,0.095,0.065,0.07,0.194,0.216,0.627,0,0.8,0,0,6.256,0,0,17.82823,296.1083,99.68682,247,7.6146865,51.9620431666667,0.914011111111111
"985",2019-11-14 14:35:50,36675,"GPRMC",133546.8,"A",5157.72253,"N",736.87925,"E",4.77,265.9,141119,2,"E","51","PTNTHPR,270.8,N,1.4,N,0.3,N*3F","PTNTHPR",270.8,"N",1.4,"N",0.3,"N","3F",5,0,-1.18,-0.23,0.33,7.83,8.08,8.08,8.08,68.04,68.04,68.04,16985.24,0.669,0.265,0.075,0.127,0.078,0.185,0.097,0,1.253,0.374,0.8,1.68,0,0,0,23.295,17.72834,300.5074,99.67047,247,7.61465416666667,51.9620421666667,1.3268
"986",2019-11-14 14:35:51,36676,"GPRMC",133547.8,"A",5157.7224,"N",736.87713,"E",4.23,258.4,141119,2,"E","5B","PTNTHPR,267.2,N,1.4,N,0.6,N*36","PTNTHPR",267.2,"N",1.4,"N",0.6,"N","36",1,10,-0.44,0.04,0.31,7.8,8.08,8.08,8.08,68.14,68.14,68.14,17629.5,0.685,0.279,0.123,0.04,0,0.07,0.049,0.216,0.627,0,0,0,0,0,0,0,17.81089,299.8231,99.66079,247,7.61461883333333,51.96204,1.7377
"987",2019-11-14 14:35:52,36677,"GPRMC",133548.8,"A",5157.722,"N",736.87575,"E",3.19,236.7,141119,2,"E","57","PTNTHPR,279.7,N,6.1,N,1.6,N*3F","PTNTHPR",279.7,"N",6.1,"N",1.6,"N","3F",3,0,0.48,-0.41,0.26,7.83,8.09,8.09,8.09,68.25,68.25,68.25,14974.83,0.68,0.31,0.114,0.079,0.026,0,0.146,0.108,0.836,0,0.8,0,0,0,0,0,17.72367,300.8329,99.66079,247,7.61459583333333,51.9620333333333,2.28917777777778
"988",2019-11-14 14:35:53,36678,"GPRMC",133549.9,"A",5157.72167,"N",736.87494,"E",1.46,232,141119,2,"E","50","PTNTHPR,264.9,N,2.1,N,1.3,N*3C","PTNTHPR",264.9,"N",2.1,"N",1.3,"N","3C",5,0,0.22,-0.69,0.13,7.81,8.08,8.08,8.08,68.35,68.35,68.35,17347.02,0.686,0.246,0.128,0.063,0.118,0.116,0.243,0.216,0.209,0.747,0,1.68,0,0,0,23.295,17.66646,296.7393,99.69652,247,7.61458233333333,51.9620278333333,1.44718888888889
"989",2019-11-14 14:35:54,36679,"GPRMC",133550.9,"A",5157.72151,"N",736.87438,"E",1.21,218.3,141119,2,"E","51","PTNTHPR,247.1,N,-2.0,N,-0.4,N*32","PTNTHPR",247.1,"N",-2,"N",-0.4,"N","32",1,10,0.67,-0.25,0.37,7.81,8.08,8.08,8.08,68.37,68.37,68.37,16134.5,0.662,0.221,0.11,0.032,0.078,0.093,0.097,0.324,0.627,0,0.8,0,0,0,0,0,17.6923,299.5188,99.67047,247,7.614573,51.9620251666667,1.35497777777778
"990",2019-11-14 14:35:55,36680,"GPRMC",133551.9,"A",5157.72143,"N",736.87412,"E",0.32,211.4,141119,2,"E","56","PTNTHPR,242.7,N,0.9,N,3.3,N*3E","PTNTHPR",242.7,"N",0.9,"N",3.3,"N","3E",3,0,0.64,-0.2,0.14,7.8,8.07,8.07,8.07,68.5,68.5,68.5,20545.17,0.703,0.237,0.11,0.095,0.065,0.116,0.097,0.324,0.418,0.747,0,0,0,0,12.069,0,17.75018,299.7061,99.67047,247,7.61456866666667,51.9620238333333,0.844622222222222
"991",2019-11-14 14:35:56,36681,"GPRMC",133552.9,"A",5157.72168,"N",736.8737,"E",0.1,211.4,141119,2,"E","5F","PTNTHPR,233.7,N,-1.5,N,2.0,N*1A","PTNTHPR",233.7,"N",-1.5,"N",2,"N","1A",5,0,0.82,-0.28,0.01,7.78,8.06,8.06,8.06,68.55,68.55,68.55,16291.43,0.684,0.284,0.079,0.071,0.065,0.139,0.194,0.324,0.627,0,0.8,0,0,6.256,0,0,17.71631,301.0232,99.66079,247,7.61456166666667,51.962028,0.949844444444444
"992",2019-11-14 14:35:57,36682,"GPRMC",133553.9,"A",5157.72175,"N",736.87352,"E",0.09,211.4,141119,2,"E","5A","PTNTHPR,230.2,N,-0.4,N,4.4,N*1E","PTNTHPR",230.2,"N",-0.4,"N",4.4,"N","1E",1,10,0.59,-0.65,0.25,7.78,8.04,8.04,8.04,68.63,68.63,68.63,15296.96,0.66,0.284,0.075,0.087,0.078,0.116,0.049,0.54,1.671,0,0.8,1.68,0,0,0,0,17.66618,308.0554,99.67047,247,7.61455866666667,51.9620291666667,1.0588
"993",2019-11-14 14:35:58,36683,"GPRMC",133554.8,"A",5157.7218,"N",736.87338,"E",0.06,211.4,141119,2,"E","55","PTNTHPR,232.0,N,1.0,N,6.5,N*35","PTNTHPR",232,"N",1,"N",6.5,"N","35",3,0,0.89,-0.22,0.23,7.81,8.03,8.03,8.03,68.73,68.73,68.73,14771.65,0.672,0.221,0.128,0.071,0.026,0.116,0.146,0.108,0.209,0.747,0,0,0,0,0,0,17.6935,308.2628,99.65112,247,7.61455633333333,51.96203,0.969266666666667
"994",2019-11-14 14:35:59,36684,"GPRMC",133555.8,"A",5157.72178,"N",736.87327,"E",0.07,211.4,141119,2,"E","5C","PTNTHPR,233.3,N,1.2,N,5.0,N*33","PTNTHPR",233.3,"N",1.2,"N",5,"N","33",5,0,0.79,-0.05,0.03,7.83,8.07,8.07,8.07,68.8,68.8,68.8,14380.14,0.662,0.209,0.128,0.055,0.144,0.07,0.194,0.432,0.836,0,0.8,0,0,0,0,0,17.6987,311.0234,99.67047,247,7.6145545,51.9620296666667,0.828511111111111
"995",2019-11-14 14:36:00,36685,"GPRMC",133556.8,"A",5157.72175,"N",736.87319,"E",0.06,211.4,141119,2,"E","5E","PTNTHPR,232.8,N,0.9,N,5.7,N*34","PTNTHPR",232.8,"N",0.9,"N",5.7,"N","34",1,10,0.62,-0.43,0.42,7.84,8.05,8.05,8.05,68.86,68.86,68.86,14416.48,0.647,0.27,0.114,0.055,0.065,0.116,0.097,0.108,1.044,0.374,0,3.36,0,0,0,0,17.71265,309.0242,99.66079,247,7.61455316666667,51.9620291666667,0.835766666666667
"996",2019-11-14 14:36:01,36686,"GPRMC",133557.9,"A",5157.72176,"N",736.87311,"E",0.04,211.4,141119,2,"E","57","PTNTHPR,232.0,N,0.9,N,6.5,N*3D","PTNTHPR",232,"N",0.9,"N",6.5,"N","3D",3,0,0.71,-0.2,0.18,7.81,8.06,8.06,8.06,68.93,68.93,68.93,14933.54,0.695,0.268,0.128,0.055,0.144,0.093,0.34,0.432,0,0.374,0,1.68,0,0,0,0,17.70819,307.1239,99.68682,247,7.61455183333333,51.9620293333333,0.770577777777778
"997",2019-11-14 14:36:02,36687,"GPRMC",133558.9,"A",5157.72174,"N",736.87304,"E",0.08,211.4,141119,2,"E","52","PTNTHPR,233.6,N,1.2,N,5.0,N*36","PTNTHPR",233.6,"N",1.2,"N",5,"N","36",5,0,0.85,-0.31,0.25,7.86,8.06,8.06,8.06,68.9,68.9,68.9,18204.38,0.691,0.284,0.132,0.055,0.026,0.116,0.243,0.54,0,0.374,0,0,0,0,0,0,17.81063,309.0027,99.68682,247,7.61455066666667,51.962029,0.987255555555555
"998",2019-11-14 14:36:03,36688,"GPRMC",133559.9,"A",5157.72173,"N",736.87303,"E",0.07,211.4,141119,2,"E","5C","PTNTHPR,233.3,N,1.3,N,4.5,N*36","PTNTHPR",233.3,"N",1.3,"N",4.5,"N","36",1,10,0.41,-0.61,0.58,8.24,8.06,8.06,8.06,69.01,69.01,69.01,16844.83,0.702,0.296,0.097,0.087,0.052,0.07,0.097,0.108,0.418,0.374,0.8,0,0,0,0,0,18.60256,304.36,99.67047,247,7.6145505,51.9620288333333,0.818111111111111
"999",2019-11-14 14:36:04,36689,"GPRMC",133600.9,"A",5157.72172,"N",736.8731,"E",0.12,211.4,141119,2,"E","54","PTNTHPR,233.5,N,1.3,N,3.5,N*37","PTNTHPR",233.5,"N",1.3,"N",3.5,"N","37",3,0,0.67,-0.41,0.23,8.24,8.05,8.05,8.05,69.03,69.03,69.03,17588.2,0.653,0.296,0.101,0.095,0.078,0.093,0.049,0.108,0.627,0,0.8,0,0,0,0,0,18.41544,307.1235,99.67047,247,7.61455166666667,51.9620286666667,0.899833333333333
"1000",2019-11-14 14:36:05,36690,"GPRMC",133601.9,"A",5157.72177,"N",736.87325,"E",0.08,211.4,141119,2,"E","5D","PTNTHPR,233.7,N,1.4,N,3.6,N*31","PTNTHPR",233.7,"N",1.4,"N",3.6,"N","31",5,0,0.75,-0.09,0.3,8.21,8.05,8.05,8.05,69.1,69.1,69.1,16321.17,0.628,0.282,0.128,0.071,0.052,0.116,0.146,0.216,0.627,0,1.599,3.36,0,0,0,0,18.55922,304.3551,99.66079,247,7.61455416666667,51.9620295,0.799255555555556
"1001",2019-11-14 14:36:06,36691,"GPRMC",133602.8,"A",5157.72177,"N",736.87325,"E",0.06,211.4,141119,2,"E","51","PTNTHPR,233.0,N,1.0,N,3.8,N*3C","PTNTHPR",233,"N",1,"N",3.8,"N","3C",1,10,0.21,-0.2,0.45,8.16,8.09,8.09,8.09,69.17,69.17,69.17,17612.98,0.667,0.265,0.123,0.111,0.144,0.162,0.146,0.108,0.418,0.747,1.599,0,0,0,0,0,18.61859,303.742,99.67047,247,7.61455416666667,51.9620295,0.280866666666667
"1002",2019-11-14 14:36:07,36692,"GPRMC",133603.8,"A",5157.72193,"N",736.87322,"E",0.04,211.4,141119,2,"E","5F","PTNTHPR,231.9,N,0.7,N,4.8,N*36","PTNTHPR",231.9,"N",0.7,"N",4.8,"N","36",3,0,0.29,-0.96,-0.03,7.98,8.08,8.08,8.08,69.24,69.24,69.24,15888.36,0.684,0.293,0.154,0.103,0.091,0.209,0.146,0.54,0.836,2.615,2.399,0,9.726,0,0,0,18.44987,302.4464,99.69651,247,7.61455366666667,51.9620321666667,1.23217777777778
"1003",2019-11-14 14:36:08,36693,"GPRMC",133604.9,"A",5157.72217,"N",736.87301,"E",0.04,211.4,141119,2,"E","57","PTNTHPR,232.1,N,1.0,N,6.3,N*32","PTNTHPR",232.1,"N",1,"N",6.3,"N","32",5,0,0.08,-0.46,0.01,8.03,8.09,8.09,8.09,69.3,69.3,69.3,17436.22,0.701,0.329,0.167,0.174,0.091,0.232,0.292,0.755,1.253,0,3.998,3.36,0,6.256,0,0,18.58222,301.9255,99.67047,247,7.61455016666667,51.9620361666667,0.312177777777778
"1004",2019-11-14 14:36:09,36694,"GPRMC",133605.9,"A",5157.72217,"N",736.87301,"E",0.06,211.4,141119,2,"E","54","PTNTHPR,231.9,N,1.1,N,6.2,N*39","PTNTHPR",231.9,"N",1.1,"N",6.2,"N","39",1,10,0.15,-0.03,0.08,8.12,8.08,8.08,8.08,69.37,69.37,69.37,16858.04,0.683,0.253,0.092,0.071,0.065,0.232,0.243,0.54,0.836,3.735,2.399,1.68,3.242,0,0,0,18.60959,301.5321,99.70621,247,7.61455016666667,51.9620361666667,0.181766666666667
"1005",2019-11-14 14:36:10,36695,"GPRMC",133606.9,"A",5157.72229,"N",736.87302,"E",0.06,211.4,141119,2,"E","59","PTNTHPR,232.3,N,0.8,N,5.9,N*30","PTNTHPR",232.3,"N",0.8,"N",5.9,"N","30",3,0,0.31,0.39,-0.02,8.08,8.05,8.05,8.05,69.41,69.41,69.41,18055.7,0.669,0.296,0.123,0.055,0.065,0.394,0,0.108,0.836,0.747,1.599,1.68,9.726,6.256,0,23.295,18.97408,302.6356,99.66079,247,7.61455033333333,51.9620381666667,0.492966666666667
"1006",2019-11-14 14:36:11,36696,"GPRMC",133607.9,"A",5157.72233,"N",736.87312,"E",0.05,211.4,141119,2,"E","51","PTNTHPR,232.3,N,1.1,N,7.3,N*30","PTNTHPR",232.3,"N",1.1,"N",7.3,"N","30",5,0,0.22,0.2,0.15,8.09,8.09,8.09,8.09,69.43,69.43,69.43,15903.22,0.694,0.289,0.136,0.103,0.039,0.301,0.097,0.432,1.044,0.374,3.998,1.68,9.726,0,0,23.295,18.92575,307.8345,99.68682,247,7.614552,51.9620388333333,0.285722222222222
"1007",2019-11-14 14:36:12,36697,"GPRMC",133608.9,"A",5157.72237,"N",736.87314,"E",0.1,211.4,141119,2,"E","58","PTNTHPR,232.5,N,1.0,N,5.8,N*3E","PTNTHPR",232.5,"N",1,"N",5.8,"N","3E",1,10,0.49,0.42,0.03,7.82,8.09,8.09,8.09,69.47,69.47,69.47,16800.23,0.689,0.329,0.141,0.103,0.091,0.255,0.243,0.216,1.253,1.494,3.199,0,0,6.256,0,0,17.87244,302.1156,99.67047,247,7.61455233333333,51.9620395,0.717844444444444
"1008",2019-11-14 14:36:13,36698,"GPRMC",133609.8,"A",5157.72241,"N",736.8732,"E",0.07,211.4,141119,2,"E","58","PTNTHPR,232.5,N,1.0,N,5.3,N*35","PTNTHPR",232.5,"N",1,"N",5.3,"N","35",3,0,0.43,0.8,0.06,7.8,8.08,8.08,8.08,69.55,69.55,69.55,15898.27,0.701,0.312,0.132,0.087,0.104,0.116,0.389,0.755,0.627,0.374,4.798,1.68,0,0,0,0,17.69955,296.1944,99.67047,247,7.61455333333333,51.9620401666667,1.10601111111111
"1009",2019-11-14 14:36:14,36699,"GPRMC",133610.8,"A",5157.72244,"N",736.87326,"E",0.04,211.4,141119,2,"E","50","PTNTHPR,232.9,N,1.2,N,4.8,N*31","PTNTHPR",232.9,"N",1.2,"N",4.8,"N","31",5,0,0.61,0.53,0.18,7.82,8.09,8.09,8.09,69.62,69.62,69.62,16633.38,0.685,0.305,0.123,0.079,0.078,0.139,0,0.971,1.044,0.374,3.998,1.68,6.484,0,24.139,0,17.64579,297.056,99.66079,247,7.61455433333333,51.9620406666667,0.911477777777778
"1010",2019-11-14 14:36:15,36700,"GPRMC",133611.8,"A",5157.7225,"N",736.87338,"E",0.03,211.4,141119,2,"E","5C","PTNTHPR,232.0,N,1.0,N,4.7,N*35","PTNTHPR",232,"N",1,"N",4.7,"N","35",1,10,0.48,0.47,0.06,7.83,8.11,8.11,8.11,69.67,69.67,69.67,15486.94,0.712,0.251,0.132,0.048,0.078,0.07,0.097,0.108,1.671,0.374,3.199,1.68,3.242,0,0,23.295,17.68428,297.9009,99.68682,247,7.61455633333333,51.9620416666667,0.716333333333333
"1011",2019-11-14 14:36:16,36701,"GPRMC",133612.9,"A",5157.72253,"N",736.87343,"E",0.06,211.4,141119,2,"E","54","PTNTHPR,232.9,N,1.4,N,4.8,N*37","PTNTHPR",232.9,"N",1.4,"N",4.8,"N","37",3,0,0.55,0.36,-0.06,7.8,8.1,8.1,8.1,69.65,69.65,69.65,15964.35,0.651,0.268,0.088,0.119,0.091,0.093,0.292,0.216,0.836,0.747,2.399,0,0,0,0,0,17.66432,299.6543,99.68682,247,7.61455716666667,51.9620421666667,0.710466666666667
"1012",2019-11-14 14:36:17,36702,"GPRMC",133613.9,"A",5157.72254,"N",736.87338,"E",0.07,211.4,141119,2,"E","5F","PTNTHPR,231.5,N,1.0,N,5.9,N*3C","PTNTHPR",231.5,"N",1,"N",5.9,"N","3C",5,0,0.32,0.71,-0.02,7.84,8.08,8.08,8.08,69.6,69.6,69.6,15904.88,0.718,0.275,0.145,0.071,0.039,0.046,0,0,1.253,0.747,0,0,0,0,0,0,17.64183,298.2276,99.67047,247,7.61455633333333,51.9620423333333,0.860111111111111
"1013",2019-11-14 14:36:18,36703,"GPRMC",133614.9,"A",5157.72252,"N",736.87338,"E",0.03,211.4,141119,2,"E","5A","PTNTHPR,231.6,N,1.0,N,6.1,N*34","PTNTHPR",231.6,"N",1,"N",6.1,"N","34",1,10,0.14,0.58,0.11,7.85,8.08,8.08,8.08,69.52,69.52,69.52,16418.63,0.672,0.272,0.088,0.095,0.065,0.116,0.146,0.324,0.627,0.747,0,1.68,0,6.256,0,0,17.64099,298.4197,99.67047,247,7.61455633333333,51.962042,0.491833333333333
"1014",2019-11-14 14:36:19,36704,"GPRMC",133615.9,"A",5157.72249,"N",736.8734,"E",0.04,211.4,141119,2,"E","59","PTNTHPR,232.2,N,1.1,N,5.6,N*36","PTNTHPR",232.2,"N",1.1,"N",5.6,"N","36",3,0,0.19,0.53,-0.04,7.86,8.07,8.07,8.07,69.52,69.52,69.52,16555.74,0.625,0.277,0.101,0.095,0.013,0.046,0.097,0.216,0.209,0.747,0,1.68,3.242,0,0,0,17.63514,298.3735,99.70621,247,7.61455666666667,51.9620415,0.491477777777778
"1015",2019-11-14 14:36:20,36705,"GPRMC",133616.8,"A",5157.72247,"N",736.87347,"E",0.05,211.4,141119,2,"E","53","PTNTHPR,231.7,N,1.0,N,5.9,N*3E","PTNTHPR",231.7,"N",1,"N",5.9,"N","3E",5,0,0.23,0.44,0.02,7.8,8.06,8.06,8.06,69.44,69.44,69.44,16919.17,0.684,0.272,0.106,0.119,0.052,0.139,0.049,0.324,0.209,0.747,0.8,3.36,0,0,0,0,17.63354,298.3095,99.66079,247,7.61455783333333,51.9620411666667,0.449322222222222
"1016",2019-11-14 14:36:21,36706,"GPRMC",133617.8,"A",5157.72242,"N",736.87356,"E",0.05,211.4,141119,2,"E","57","PTNTHPR,231.7,N,1.1,N,6.8,N*3D","PTNTHPR",231.7,"N",1.1,"N",6.8,"N","3D",1,10,0.28,0.37,-0.05,7.79,8.07,8.07,8.07,69.36,69.36,69.36,16385.59,0.694,0.249,0.128,0.063,0.039,0.139,0.097,0.216,0,0.374,0.8,0,0,0,0,0,17.63362,298.6851,99.67047,247,7.61455933333333,51.9620403333333,0.442622222222222
"1017",2019-11-14 14:36:22,36707,"GPRMC",133618.8,"A",5157.72238,"N",736.87365,"E",0.05,211.4,141119,2,"E","55","PTNTHPR,231.9,N,1.0,N,6.4,N*3E","PTNTHPR",231.9,"N",1,"N",6.4,"N","3E",3,0,0.26,0.22,-0.04,7.78,8.06,8.06,8.06,69.3,69.3,69.3,16995.16,0.681,0.312,0.084,0.04,0.026,0.185,0.243,0.216,0.627,0.747,0.8,3.36,0,0,0,0,17.64622,300.8248,99.67047,247,7.61456083333333,51.9620396666667,0.334122222222222
"1018",2019-11-14 14:36:23,36708,"GPRMC",133619.9,"A",5157.72237,"N",736.87368,"E",0.1,211.4,141119,2,"E","53","PTNTHPR,233.2,N,1.5,N,5.2,N*37","PTNTHPR",233.2,"N",1.5,"N",5.2,"N","37",5,0,-0.01,0.04,0.04,7.8,8.07,8.07,8.07,69.24,69.24,69.24,15804.11,0.647,0.258,0.119,0.063,0.052,0.046,0.194,0.54,0.836,0.747,0,0,0,0,0,0,17.64389,300.5124,99.67047,247,7.61456133333333,51.9620395,0.0430444444444444
"1019",2019-11-14 14:36:24,36709,"GPRMC",133620.9,"A",5157.72239,"N",736.8735,"E",0.43,211.4,141119,2,"E","5A","PTNTHPR,230.5,N,0.9,N,5.7,N*3B","PTNTHPR",230.5,"N",0.9,"N",5.7,"N","3B",1,10,-0.32,-0.25,0.05,7.78,8.08,8.08,8.08,69.24,69.24,69.24,15401.03,0.673,0.253,0.11,0.04,0.078,0.116,0.243,0.324,0.418,0.374,0,0,0,0,0,0,17.68791,304.7861,99.67047,247,7.61455833333333,51.9620398333333,0.161288888888889
"1020",2019-11-14 14:36:25,36710,"GPRMC",133621.9,"A",5157.72238,"N",736.87345,"E",0.82,188.2,141119,2,"E","56","PTNTHPR,231.8,N,2.1,N,6.0,N*39","PTNTHPR",231.8,"N",2.1,"N",6,"N","39",3,0,-0.21,-0.47,-0.06,7.79,8.1,8.1,8.1,69.21,69.21,69.21,16590.43,0.591,0.242,0.106,0.048,0.091,0.023,0,0.324,0.209,0.747,0,1.68,0,0,0,0,17.69482,303.4124,99.67047,247,7.6145575,51.9620396666667,0.432744444444444
"1021",2019-11-14 14:36:26,36711,"GPRMC",133622.9,"A",5157.72203,"N",736.87355,"E",1.32,168.6,141119,2,"E","5C","PTNTHPR,229.6,N,1.6,N,3.3,N*3C","PTNTHPR",229.6,"N",1.6,"N",3.3,"N","3C",5,0,-0.26,0.28,-0.03,7.81,8.09,8.09,8.09,69.15,69.15,69.15,17383.36,0.694,0.214,0.128,0.095,0.026,0.093,0.049,0.324,0.627,1.121,0,0,0,0,0,0,17.74263,300.9756,99.68682,247,7.61455916666667,51.9620338333333,0.497466666666667
"1022",2019-11-14 14:36:27,36712,"GPRMC",133623.8,"A",5157.72145,"N",736.87371,"E",1.3,162.9,141119,2,"E","5C","PTNTHPR,217.4,N,1.5,N,2.3,N*31","PTNTHPR",217.4,"N",1.5,"N",2.3,"N","31",1,10,-1.11,-0.16,0.28,7.89,8.09,8.09,8.09,69.12,69.12,69.12,16699.46,0.656,0.251,0.106,0.071,0.052,0.116,0.243,0.108,0.627,0,1.599,0,0,0,0,0,18.19952,299.949,99.68682,247,7.61456183333333,51.9620241666667,0.466822222222222
"1023",2019-11-14 14:36:28,36713,"GPRMC",133624.8,"A",5157.72091,"N",736.87379,"E",2.15,179.7,141119,2,"E","5B","PTNTHPR,203.6,N,1.4,N,-0.6,N*1D","PTNTHPR",203.6,"N",1.4,"N",-0.6,"N","1D",3,0,-1.55,-0.19,0.13,7.84,8.09,8.09,8.09,69.17,69.17,69.17,NA,0.734,0.298,0.119,0.071,0.052,0.139,0.146,0.216,0.209,0.374,1.599,0,0,6.256,0,0,17.9698,301.7104,99.67047,247,7.61456316666667,51.9620151666667,0.480044444444444
"1024",2019-11-14 14:36:29,36714,"GPRMC",133625.9,"A",5157.71986,"N",736.87378,"E",3.64,180.1,141119,2,"E","51","PTNTHPR,194.1,N,6.0,N,-2.9,N*19","PTNTHPR",194.1,"N",6,"N",-2.9,"N","19",5,0,-1.43,-0.29,0.25,7.8,8.07,8.07,8.07,69.14,69.14,69.14,NA,0.661,0.298,0.101,0.087,0.065,0.093,0.049,0.324,0.627,0,0,0,0,6.256,0,0,18.23179,308.8698,99.67047,247,7.614563,51.9619976666667,0.526677777777778
"1025",2019-11-14 14:36:30,36715,"GPRMC",133626.9,"A",5157.71888,"N",736.87364,"E",3.89,184.8,141119,2,"E","5E","PTNTHPR,184.8,N,9.9,N,-1.0,N*1D","PTNTHPR",184.8,"N",9.9,"N",-1,"N","1D",1,10,-1.58,-0.62,-0.12,7.63,8.06,8.06,8.06,69.14,69.14,69.14,NA,0.686,0.272,0.106,0.063,0.118,0.162,0.243,0.216,1.462,0.747,0,1.68,3.242,0,0,0,17.80852,305.0449,99.68682,247,7.61456066666667,51.9619813333333,0.805588888888889
"1026",2019-11-14 14:36:31,36716,"GPRMC",133627.9,"A",5157.71768,"N",736.87355,"E",4.14,181.1,141119,2,"E","53","PTNTHPR,182.6,N,6.2,N,-0.1,N*11","PTNTHPR",182.6,"N",6.2,"N",-0.1,"N","11",3,0,-2.5,-1.35,0.28,7.75,8.09,8.09,8.09,69.18,69.18,69.18,NA,0.638,0.253,0.132,0.087,0.039,0.209,0.146,0.216,0.627,0,1.599,1.68,0,0,0,0,17.8876,304.9197,99.67047,247,7.61455916666667,51.9619613333333,2.1927
"1027",2019-11-14 14:36:32,36717,"GPRMC",133628.9,"A",5157.71642,"N",736.87368,"E",5.33,177.7,141119,2,"E","50","PTNTHPR,178.9,N,2.9,N,1.2,N*3B","PTNTHPR",178.9,"N",2.9,"N",1.2,"N","3B",5,0,-3.19,-1.04,-0.41,7.68,8.1,8.1,8.1,69.25,69.25,69.25,NA,0.657,0.27,0.11,0.087,0.065,0.093,0.243,0.432,0.209,0.374,0,1.68,3.242,0,0,0,18.05589,306.6772,99.67047,247,7.61456133333333,51.9619403333333,1.52961111111111
"1028",2019-11-14 14:36:33,36718,"GPRMC",133629.9,"A",5157.71471,"N",736.87384,"E",5.76,174,141119,2,"E","54","PTNTHPR,174.0,N,4.0,N,0.6,N*34","PTNTHPR",174,"N",4,"N",0.6,"N","34",1,10,-2.9,-1.2,0.06,7.81,8.09,8.09,8.09,69.28,69.28,69.28,15204.57,0.692,0.239,0.11,0.071,0.039,0.093,0.146,0.324,0.627,1.494,0.8,0,6.484,0,0,0,17.89359,289.4242,99.66079,247,7.614564,51.9619118333333,1.5032
"1029",2019-11-14 14:36:34,36719,"GPRMC",133630.9,"A",5157.71306,"N",736.87447,"E",6.06,158.5,141119,2,"E","5C","PTNTHPR,170.4,N,5.8,N,0.3,N*38","PTNTHPR",170.4,"N",5.8,"N",0.3,"N","38",3,0,-3.12,-0.28,0.41,7.83,8.1,8.1,8.1,69.32,69.32,69.32,16787.14,0.638,0.235,0.123,0.087,0.091,0.07,0.194,0.324,0.418,0.374,1.599,0,0,0,0,0,18.2726,300.5783,99.67047,247,7.6145745,51.9618843333333,0.0808666666666669
"1030",2019-11-14 14:36:35,36720,"GPRMC",133631.8,"A",5157.71201,"N",736.87547,"E",4.48,145,141119,2,"E","5A","PTNTHPR,160.7,N,6.9,N,0.2,N*39","PTNTHPR",160.7,"N",6.9,"N",0.2,"N","39",5,0,-2.27,-0.05,0.36,7.9,8.06,8.06,8.06,69.3,69.3,69.3,17005.2,0.646,0.228,0.145,0.063,0.026,0.162,0.049,0.432,1.253,1.121,1.599,0,0,0,0,0,18.13147,296.3237,99.67047,247,7.61459116666667,51.9618668333333,0.0372111111111116
"1031",2019-11-14 14:36:36,36721,"GPRMC",133632.8,"A",5157.71095,"N",736.87702,"E",4.67,138,141119,2,"E","52","PTNTHPR,144.5,N,5.4,N,0.8,N*39","PTNTHPR",144.5,"N",5.4,"N",0.8,"N","39",1,10,-2.67,-0.38,0.44,7.77,8.11,8.11,8.11,69.3,69.3,69.3,17442.97,0.689,0.256,0.101,0.079,0.065,0.046,0.146,0.216,1.253,0.747,0.8,1.68,0,6.256,0,0,17.98862,289.2626,99.66079,247,7.614617,51.9618491666667,0.411944444444444
"1032",2019-11-14 14:36:37,36722,"GPRMC",133633.9,"A",5157.7096,"N",736.87831,"E",3.89,150.3,141119,2,"E","55","PTNTHPR,139.6,N,3.4,N,-0.7,N*14","PTNTHPR",139.6,"N",3.4,"N",-0.7,"N","14",3,0,-1.85,-0.35,0.26,7.62,8.08,8.08,8.08,69.25,69.25,69.25,20105.92,0.67,0.27,0.119,0.111,0.052,0.255,0.437,0.324,0.627,1.494,0.8,1.68,3.242,0,0,0,18.1185,285.6202,99.67047,247,7.6146385,51.9618266666667,0.273688888888889
"1033",2019-11-14 14:36:38,36723,"GPRMC",133634.9,"A",5157.70827,"N",736.87907,"E",4.4,161.1,141119,2,"E","56","PTNTHPR,141.4,N,6.4,N,-0.4,N*1F","PTNTHPR",141.4,"N",6.4,"N",-0.4,"N","1F",5,0,-2.22,-0.78,-0.2,7.75,8.07,8.07,8.07,69.17,69.17,69.17,15589.48,0.709,0.239,0.132,0.079,0.091,0.232,0.146,0.216,0.627,0.374,0,0,0,0,0,0,17.96648,292.8017,99.67047,247,7.61465116666667,51.9618045,0.651955555555556
"1034",2019-11-14 14:36:39,36724,"GPRMC",133635.9,"A",5157.70694,"N",736.87959,"E",4.65,171.2,141119,2,"E","5F","PTNTHPR,144.0,N,5.3,N,1.4,N*36","PTNTHPR",144,"N",5.3,"N",1.4,"N","36",1,10,-0.89,-0.79,-0.8,7.55,8.06,8.06,8.06,69.08,69.08,69.08,16202.35,0.739,0.221,0.101,0.079,0.091,0.023,0.097,0.432,0.627,0.747,0,0,0,0,12.069,0,18.22539,299.3662,99.61545,247,7.61465983333333,51.9617823333333,2.12626666666667
"1035",2019-11-14 14:36:40,36725,"GPRMC",133636.9,"A",5157.70555,"N",736.88016,"E",4.94,166.9,141119,2,"E","5C","PTNTHPR,159.3,N,3.7,N,1.1,N*3E","PTNTHPR",159.3,"N",3.7,"N",1.1,"N","3E",3,0,-2.18,-0.2,0.38,7.78,8.07,8.07,8.07,69.05,69.05,69.05,16602.13,0.639,0.244,0.097,0.04,0.118,0.162,0,0.432,0.209,0,0.8,3.36,0,0,0,0,18.05049,296.6855,99.67047,247,7.61466933333333,51.9617591666667,0.401355555555556
"1036",2019-11-14 14:36:41,36726,"GPRMC",133637.9,"A",5157.70408,"N",736.8808,"E",4.54,168.2,141119,2,"E","52","PTNTHPR,158.3,N,3.8,N,2.0,N*32","PTNTHPR",158.3,"N",3.8,"N",2,"N","32",5,0,-2.78,0.3,0.09,7.87,8.09,8.09,8.09,69.08,69.08,69.08,18163.22,0.686,0.235,0.132,0.127,0.104,0.116,0.146,0.324,1.044,0,0.8,1.68,6.484,6.256,0,0,17.90608,299.0368,99.66079,247,7.61468,51.9617346666667,0.534422222222222
"1037",2019-11-14 14:36:42,36727,"GPRMC",133638.9,"A",5157.70255,"N",736.88136,"E",5.74,168.8,141119,2,"E","56","PTNTHPR,161.6,N,2.7,N,-0.1,N*1D","PTNTHPR",161.6,"N",2.7,"N",-0.1,"N","1D",1,10,-3.25,0.06,0.37,7.92,8.1,8.1,8.1,69.08,69.08,69.08,16242,0.681,0.305,0.114,0.063,0.078,0.139,0.292,0.54,0.418,1.494,0,1.68,0,6.256,12.069,0,17.73135,294.0215,99.65112,247,7.61468933333333,51.9617091666667,0.300688888888889
"1038",2019-11-14 14:36:43,36728,"GPRMC",133639.8,"A",5157.70099,"N",736.88155,"E",5.99,182.5,141119,2,"E","5B","PTNTHPR,157.9,N,4.6,N,1.4,N*39","PTNTHPR",157.9,"N",4.6,"N",1.4,"N","39",3,0,-3.86,-0.41,0.45,7.99,8.11,8.11,8.11,69.08,69.08,69.08,16144.54,0.688,0.277,0.088,0.055,0.078,0.185,0.049,0.216,1.253,0.374,0,1.68,0,0,0,0,17.55434,293.4319,99.68682,247,7.6146925,51.9616831666667,0.946577777777777
"1039",2019-11-14 14:36:44,36729,"GPRMC",133640.8,"A",5157.69909,"N",736.88134,"E",6.51,183.6,141119,2,"E","5F","PTNTHPR,171.2,N,4.3,N,-0.8,N*13","PTNTHPR",171.2,"N",4.3,"N",-0.8,"N","13",5,0,-2.82,-0.04,-0.08,8.09,8.09,8.09,8.09,69.08,69.08,69.08,17492.53,0.674,0.272,0.11,0.071,0.065,0.07,0,0.324,0.836,0.374,3.998,5.039,0,0,0,0,17.75772,292.0161,99.66079,247,7.614689,51.9616515,0.530633333333334
"1040",2019-11-14 14:36:45,36730,"GPRMC",133641.9,"A",5157.69685,"N",736.881,"E",7.12,186.5,141119,2,"E","53","PTNTHPR,175.9,N,5.4,N,1.9,N*37","PTNTHPR",175.9,"N",5.4,"N",1.9,"N","37",1,10,-1.82,-0.36,-0.31,7.9,8.07,8.07,8.07,69,69,69,16465.01,0.69,0.232,0.079,0.048,0.091,0.07,0.146,0.324,0.418,0,0.8,0,3.242,0,0,0,17.69347,300.531,99.67047,247,7.61468333333333,51.9616141666667,1.97244444444444
"1041",2019-11-14 14:36:46,36731,"GPRMC",133642.9,"A",5157.69485,"N",736.88079,"E",6.92,181.9,141119,2,"E","5F","PTNTHPR,182.6,N,5.0,N,0.7,N*3B","PTNTHPR",182.6,"N",5,"N",0.7,"N","3B",3,0,-1.09,-0.43,-0.39,8,8.06,8.06,8.06,68.93,68.93,68.93,15753.02,0.705,0.256,0.084,0.071,0.052,0.046,0.097,0,0.209,0.374,0.8,0,0,0,0,0,17.7056,303.7075,99.67047,247,7.61467983333333,51.9615808333333,2.65485555555556
"1042",2019-11-14 14:36:47,36732,"GPRMC",133643.9,"A",5157.69291,"N",736.88059,"E",6.48,184.9,141119,2,"E","5D","PTNTHPR,179.5,N,2.5,N,1.3,N*3B","PTNTHPR",179.5,"N",2.5,"N",1.3,"N","3B",5,0,-3.22,-0.1,0.16,7.81,8.06,8.06,8.06,68.9,68.9,68.9,16091.67,0.661,0.291,0.119,0.079,0.091,0.116,0.097,0.108,0.836,0.374,0,0,0,0,0,0,17.73159,317.6382,99.67047,247,7.6146765,51.9615485,0.1236
"1043",2019-11-14 14:36:48,36733,"GPRMC",133644.9,"A",5157.69082,"N",736.8801,"E",6.67,193.4,141119,2,"E","51","PTNTHPR,179.4,N,2.5,N,0.6,N*3E","PTNTHPR",179.4,"N",2.5,"N",0.6,"N","3E",1,10,-2.43,0.45,0.16,7.57,8.08,8.08,8.08,68.92,68.92,68.92,18769.49,0.649,0.249,0.092,0.04,0.052,0.162,0.049,0.324,0.209,0.374,0,1.68,0,0,0,0,17.74657,317.2263,99.70621,247,7.61466833333333,51.9615136666667,1.20384444444444
"1044",2019-11-14 14:36:49,36734,"GPRMC",133645.9,"A",5157.68892,"N",736.87949,"E",6.3,188,141119,2,"E","5E","PTNTHPR,190.1,N,2.3,N,-0.2,N*13","PTNTHPR",190.1,"N",2.3,"N",-0.2,"N","13",3,0,-1.77,1.04,0.38,7.81,8.08,8.08,8.08,69.01,69.01,69.01,16882.96,0.695,0.232,0.136,0.071,0.118,0.116,0.049,0.108,0.209,0.374,0.8,1.68,0,0,0,0,17.68307,303.7087,99.65112,247,7.61465816666667,51.961482,2.5526
"1045",2019-11-14 14:36:50,36735,"GPRMC",133646.8,"A",5157.68724,"N",736.87912,"E",6.1,192.6,141119,2,"E","5F","PTNTHPR,185.0,N,2.8,N,2.5,N*35","PTNTHPR",185,"N",2.8,"N",2.5,"N","35",5,0,-2.15,0.02,0.42,7.74,8.09,8.09,8.09,69.17,69.17,69.17,16907.74,0.629,0.291,0.145,0.04,0.091,0.209,0.097,0.216,0.418,1.494,0,0,0,0,0,0,17.72177,308.5196,99.66079,247,7.614652,51.961454,0.988511111111111
"1046",2019-11-14 14:36:51,36736,"GPRMC",133647.8,"A",5157.68544,"N",736.8784,"E",6.05,192,141119,2,"E","5E","PTNTHPR,188.3,N,2.0,N,0.3,N*37","PTNTHPR",188.3,"N",2,"N",0.3,"N","37",1,10,-1.47,-0.97,-0.4,7.92,8.08,8.08,8.08,69.37,69.37,69.37,16658.29,0.64,0.251,0.132,0.103,0.052,0.116,0.194,0.108,0.418,0,0.8,0,3.242,0,0,0,17.67436,300.3995,99.67047,247,7.61464,51.961424,2.58328888888889
"1047",2019-11-14 14:36:52,36737,"GPRMC",133648.8,"A",5157.68359,"N",736.87784,"E",6.65,187.1,141119,2,"E","5F","PTNTHPR,190.4,N,3.5,N,1.2,N*3D","PTNTHPR",190.4,"N",3.5,"N",1.2,"N","3D",3,0,-2.07,-0.41,0.41,7.97,8.1,8.1,8.1,69.37,69.37,69.37,15979.34,0.759,0.298,0.123,0.04,0.026,0.116,0.049,0.54,0.418,0,0,0,9.726,0,12.069,0,17.63694,297.479,99.67047,247,7.61463066666667,51.9613931666667,1.51915555555556
"1048",2019-11-14 14:36:53,36738,"GPRMC",133649.9,"A",5157.68141,"N",736.87743,"E",6.83,185.9,141119,2,"E","5D","PTNTHPR,185.2,N,3.8,N,1.3,N*33","PTNTHPR",185.2,"N",3.8,"N",1.3,"N","33",5,0,-3.21,-0.35,0.21,7.81,8.09,8.09,8.09,69.55,69.55,69.55,17183.61,0.681,0.289,0.141,0.103,0.118,0.07,0.049,0.108,0,1.121,0,0,0,0,0,0,17.60311,296.0365,99.68682,247,7.61462383333333,51.9613568333333,0.426155555555556
"1049",2019-11-14 14:36:54,36739,"GPRMC",133650.9,"A",5157.67943,"N",736.877,"E",7.2,188.4,141119,2,"E","5F","PTNTHPR,183.0,N,3.7,N,0.1,N*3B","PTNTHPR",183,"N",3.7,"N",0.1,"N","3B",1,10,-3.57,-0.52,0.42,7.7,8.07,8.07,8.07,69.6,69.6,69.6,17523.92,0.692,0.263,0.128,0.071,0.091,0.232,0.097,0.108,0.418,0,0.8,0,0,0,0,0,17.76823,323.1859,99.67047,247,7.61461666666667,51.9613238333333,0.4044
"1050",2019-11-14 14:36:55,36740,"GPRMC",133651.9,"A",5157.67733,"N",736.87658,"E",7.43,186.5,141119,2,"E","51","PTNTHPR,186.1,N,3.8,N,0.3,N*32","PTNTHPR",186.1,"N",3.8,"N",0.3,"N","32",3,0,-3.59,-0.01,0.5,7.7,8.06,8.06,8.06,69.72,69.72,69.72,14487.63,0.684,0.282,0.088,0.055,0.052,0.07,0.097,0.216,0.627,0.747,0,1.68,0,6.256,0,0,17.62176,307.2542,99.69651,247,7.61460966666667,51.9612888333333,0.232422222222222
"1051",2019-11-14 14:36:56,36741,"GPRMC",133652.9,"A",5157.67511,"N",736.87647,"E",7.98,181.8,141119,2,"E","52","PTNTHPR,185.3,N,5.1,N,1.0,N*3E","PTNTHPR",185.3,"N",5.1,"N",1,"N","3E",5,0,-3.48,-0.86,0.52,7.8,8.06,8.06,8.06,69.83,69.83,69.83,17125.79,0.663,0.263,0.132,0.063,0.039,0.093,0.146,0.216,0.418,0.374,0,0,0,0,0,0,17.63043,301.8022,99.62511,247,7.61460783333333,51.9612518333333,1.36486666666667
"1052",2019-11-14 14:36:57,36742,"GPRMC",133653.8,"A",5157.67311,"N",736.87628,"E",7.44,186.6,141119,2,"E","55","PTNTHPR,182.4,N,4.6,N,0.6,N*3F","PTNTHPR",182.4,"N",4.6,"N",0.6,"N","3F",1,10,-3.3,-0.65,0.46,7.89,8.07,8.07,8.07,69.93,69.93,69.93,16161.05,0.686,0.277,0.167,0.103,0.091,0.046,0.049,0.216,0.418,0.374,0.8,0,0,0,0,0,17.68352,299.5305,99.67047,247,7.61460466666667,51.9612185,0.949966666666667
"1053",2019-11-14 14:36:58,36743,"GPRMC",133654.8,"A",5157.67095,"N",736.87595,"E",6.87,182.3,141119,2,"E","57","PTNTHPR,182.6,N,4.4,N,-0.2,N*16","PTNTHPR",182.6,"N",4.4,"N",-0.2,"N","16",3,0,-4.01,-0.66,0.31,7.74,8.07,8.07,8.07,69.99,69.99,69.99,16600.47,0.657,0.258,0.119,0.095,0.039,0.116,0.292,0,0.836,0.747,0,0,0,0,0,0,17.63914,309.3376,99.66079,247,7.61459916666667,51.9611825,0.911366666666666
"1054",2019-11-14 14:36:59,36744,"GPRMC",133655.8,"A",5157.66887,"N",736.87577,"E",7.4,185.8,141119,2,"E","56","PTNTHPR,180.8,N,2.9,N,1.1,N*3E","PTNTHPR",180.8,"N",2.9,"N",1.1,"N","3E",5,0,-3.83,-0.37,0.48,7.8,8.07,8.07,8.07,70.01,70.01,70.01,15135.19,0.619,0.246,0.092,0.103,0.078,0.07,0.194,0.324,0.209,0,0.8,1.68,0,0,12.069,0,17.5696,309.4659,99.69652,247,7.61459616666667,51.9611478333333,0.160011111111111
"1055",2019-11-14 14:37:00,36745,"GPRMC",133656.9,"A",5157.66661,"N",736.87565,"E",7.07,184.9,141119,2,"E","52","PTNTHPR,178.4,N,2.9,N,0.4,N*31","PTNTHPR",178.4,"N",2.9,"N",0.4,"N","31",1,10,-3.77,-1.12,0.56,7.68,8.04,8.04,8.04,70,70,70,14778.37,0.711,0.246,0.088,0.119,0.118,0.116,0.049,0.216,0.418,0,0,1.68,0,0,0,0,17.6908,309.3613,99.67047,247,7.61459416666667,51.9611101666667,1.38727777777778
"1056",2019-11-14 14:37:01,36746,"GPRMC",133657.9,"A",5157.66454,"N",736.87539,"E",7.91,183.1,141119,2,"E","5E","PTNTHPR,180.0,N,3.3,N,1.4,N*38","PTNTHPR",180,"N",3.3,"N",1.4,"N","38",3,0,-4.2,-0.43,0.62,7.75,8.08,8.08,8.08,70.05,70.05,70.05,14885.75,0.657,0.244,0.092,0.063,0.104,0.209,0.097,0.324,0,0.747,1.599,0,0,0,0,0,17.58203,301.0514,99.67047,247,7.61458983333333,51.9610756666667,0.315644444444444
"1057",2019-11-14 14:37:02,36747,"GPRMC",133658.9,"A",5157.6624,"N",736.87524,"E",7.15,182.4,141119,2,"E","56","PTNTHPR,182.8,N,3.2,N,-0.2,N*19","PTNTHPR",182.8,"N",3.2,"N",-0.2,"N","19",5,0,-4.57,-1.48,0.24,7.75,8.06,8.06,8.06,70.1,70.1,70.1,16018.99,0.625,0.303,0.132,0.071,0.091,0.023,0.194,0.432,0.627,0,0,0,0,0,0,0,17.55003,293.3086,99.67047,247,7.61458733333333,51.96104,3.08212222222222
"1058",2019-11-14 14:37:03,36748,"GPRMC",133659.9,"A",5157.66035,"N",736.87495,"E",6.92,182.5,141119,2,"E","53","PTNTHPR,179.7,N,3.4,N,0.7,N*3C","PTNTHPR",179.7,"N",3.4,"N",0.7,"N","3C",1,10,-4.27,-1.31,0.33,7.69,8.06,8.06,8.06,70.07,70.07,70.07,16673.16,0.691,0.3,0.106,0.119,0.104,0.046,0.146,0.216,0.418,0.374,0,0,0,0,0,0,17.52624,294.4625,99.67047,247,7.6145825,51.9610058333333,2.42614444444444
"1059",2019-11-14 14:37:04,36749,"GPRMC",133700.9,"A",5157.6582,"N",736.87477,"E",7.44,180.2,141119,2,"E","52","PTNTHPR,183.3,N,3.4,N,-0.2,N*15","PTNTHPR",183.3,"N",3.4,"N",-0.2,"N","15",3,0,-4.35,-1.21,0.67,7.76,8.06,8.06,8.06,70.02,70.02,70.02,14177.06,0.662,0.279,0.101,0.04,0.065,0.139,0.146,0.324,0.209,0,0,0,0,0,0,0,17.53648,297.0576,99.66079,247,7.6145795,51.96097,1.98663333333333
"1060",2019-11-14 14:37:05,36750,"GPRMC",133701.8,"A",5157.65636,"N",736.87466,"E",6.75,185,141119,2,"E","5F","PTNTHPR,177.5,N,3.9,N,1.0,N*3B","PTNTHPR",177.5,"N",3.9,"N",1,"N","3B",5,0,-4.13,-1.15,0.61,7.7,8.06,8.06,8.06,69.9,69.9,69.9,11434.82,0.703,0.272,0.084,0.071,0.104,0.046,0.097,0.216,0.627,0,0.8,1.68,0,0,0,0,17.58188,291.9697,99.66079,247,7.61457766666667,51.9609393333333,1.98
"1061",2019-11-14 14:37:06,36751,"GPRMC",133702.8,"A",5157.65444,"N",736.87451,"E",7.2,182.9,141119,2,"E","50","PTNTHPR,178.9,N,4.2,N,-0.8,N*10","PTNTHPR",178.9,"N",4.2,"N",-0.8,"N","10",1,10,-4.43,-0.79,0.37,7.84,8.06,8.06,8.06,69.76,69.76,69.76,11699.13,0.639,0.282,0.101,0.04,0.091,0.139,0.146,0,0.418,0.747,0,3.36,3.242,0,0,0,17.61436,292.4543,99.66079,247,7.61457516666667,51.9609073333333,1.3501
"1062",2019-11-14 14:37:07,36752,"GPRMC",133703.8,"A",5157.65242,"N",736.87439,"E",6.85,183.3,141119,2,"E","5A","PTNTHPR,177.8,N,4.3,N,1.2,N*39","PTNTHPR",177.8,"N",4.3,"N",1.2,"N","39",3,0,-4.05,-1.39,0.18,7.67,8.07,8.07,8.07,69.6,69.6,69.6,10828.55,0.656,0.244,0.114,0.079,0.026,0.046,0.097,0.432,0.418,0.374,0,0,0,0,0,0,17.54593,290.5654,99.66079,247,7.61457316666667,51.9608736666667,2.45815555555555
"1063",2019-11-14 14:37:08,36753,"GPRMC",133704.9,"A",5157.65017,"N",736.87417,"E",6.92,184.4,141119,2,"E","54","PTNTHPR,176.5,N,4.7,N,0.4,N*36","PTNTHPR",176.5,"N",4.7,"N",0.4,"N","36",5,0,-4.13,-1.29,0.47,7.74,8.06,8.06,8.06,69.48,69.48,69.48,11631.4,0.632,0.249,0.088,0.103,0.091,0.209,0.146,0.324,0.627,0,0.8,0,0,0,0,0,17.57283,292.8412,99.66079,247,7.6145695,51.9608361666667,2.23414444444444
"1064",2019-11-14 14:37:09,36754,"GPRMC",133705.9,"A",5157.64816,"N",736.87412,"E",6.65,182.8,141119,2,"E","5A","PTNTHPR,178.4,N,4.6,N,0.2,N*3E","PTNTHPR",178.4,"N",4.6,"N",0.2,"N","3E",1,10,-3.9,-1.25,0.17,7.8,8.06,8.06,8.06,69.46,69.46,69.46,12265.75,0.677,0.258,0.11,0.071,0.091,0.139,0.049,0,0.418,0,0.8,3.36,0,0,0,0,17.57463,298.0284,99.66079,247,7.61456866666667,51.9608026666667,2.04144444444444
"1065",2019-11-14 14:37:10,36755,"GPRMC",133706.9,"A",5157.64633,"N",736.87398,"E",6.68,180.6,141119,2,"E","54","PTNTHPR,174.7,N,3.2,N,1.2,N*33","PTNTHPR",174.7,"N",3.2,"N",1.2,"N","33",3,0,-4.13,-1.1,0.24,7.72,8.03,8.03,8.03,69.28,69.28,69.28,12820.81,0.672,0.242,0.11,0.087,0.039,0.07,0.146,0.216,0.627,1.121,1.599,3.36,0,0,0,0,17.47302,297.139,99.62511,247,7.61456633333333,51.9607721666667,1.90351111111111
"1066",2019-11-14 14:37:11,36756,"GPRMC",133707.9,"A",5157.64442,"N",736.87391,"E",7.31,181.7,141119,2,"E","55","PTNTHPR,174.3,N,5.5,N,0.8,N*3D","PTNTHPR",174.3,"N",5.5,"N",0.8,"N","3D",5,0,-3.79,-1.15,0.21,7.75,8.02,8.02,8.02,69.17,69.17,69.17,11885.8,0.657,0.244,0.084,0.016,0.052,0.023,0.049,0.216,0,0.374,0,0,0,0,0,0,17.58256,293.6049,99.66079,247,7.61456516666667,51.9607403333333,1.35191111111111
"1067",2019-11-14 14:37:12,36757,"GPRMC",133708.9,"A",5157.64226,"N",736.87384,"E",7.11,182,141119,2,"E","5C","PTNTHPR,174.5,N,4.6,N,0.7,N*36","PTNTHPR",174.5,"N",4.6,"N",0.7,"N","36",1,10,-4.96,-1.12,0.62,7.77,8.02,8.02,8.02,69.04,69.04,69.04,12282.27,0.672,0.225,0.11,0.063,0.065,0.093,0.097,0.108,1.044,0,0,0,0,0,0,0,17.5519,301.8377,99.66079,247,7.614564,51.9607043333333,2.5567
"1068",2019-11-14 14:37:13,36758,"GPRMC",133709.8,"A",5157.64038,"N",736.87368,"E",7.22,182.8,141119,2,"E","5B","PTNTHPR,174.8,N,5.2,N,1.0,N*38","PTNTHPR",174.8,"N",5.2,"N",1,"N","38",3,0,-5.33,-0.87,0.83,7.8,8.04,8.04,8.04,68.94,68.94,68.94,12845.59,0.68,0.232,0.084,0.055,0.091,0.139,0.049,0,0.627,0.374,0,0,0,0,0,0,17.53042,297.0149,99.63477,247,7.61456133333333,51.960673,2.37261111111111
"1069",2019-11-14 14:37:14,36759,"GPRMC",133710.8,"A",5157.63838,"N",736.87362,"E",7.06,177.3,141119,2,"E","51","PTNTHPR,181.7,N,4.7,N,-0.7,N*12","PTNTHPR",181.7,"N",4.7,"N",-0.7,"N","12",5,0,-4.83,-0.94,0.32,7.73,8.04,8.04,8.04,68.89,68.89,68.89,12206.28,0.632,0.253,0.119,0.055,0.118,0.255,0.097,0.108,0.209,0,0.8,0,0,0,0,0,17.56215,297.6699,99.64444,247,7.61456033333333,51.9606396666667,2.08162222222222
"1070",2019-11-14 14:37:15,36760,"GPRMC",133711.9,"A",5157.63624,"N",736.87413,"E",7.1,171.2,141119,2,"E","53","PTNTHPR,174.9,N,3.9,N,0.4,N*31","PTNTHPR",174.9,"N",3.9,"N",0.4,"N","31",1,10,-4.7,-0.46,0.49,7.65,8.04,8.04,8.04,68.84,68.84,68.84,13765.72,0.695,0.242,0.128,0.055,0.078,0.116,0.194,0.108,0.418,0.374,1.599,0,0,0,0,0,17.63139,298.1863,99.63477,247,7.61456883333333,51.960604,1.25904444444444
"1071",2019-11-14 14:37:16,36761,"GPRMC",133712.9,"A",5157.63428,"N",736.87498,"E",6.73,163.1,141119,2,"E","59","PTNTHPR,170.6,N,3.3,N,0.5,N*31","PTNTHPR",170.6,"N",3.3,"N",0.5,"N","31",3,0,-5.46,-0.47,0.46,7.75,8.05,8.05,8.05,68.84,68.84,68.84,13717.82,0.716,0.268,0.088,0.071,0.078,0.162,0.097,0.54,0.209,0.747,0,0,0,0,0,0,17.6045,298.7538,99.66079,247,7.614583,51.9605713333333,2.21868888888889
"1072",2019-11-14 14:37:17,36762,"GPRMC",133713.9,"A",5157.63233,"N",736.87613,"E",7.27,159.5,141119,2,"E","58","PTNTHPR,158.4,N,3.3,N,1.2,N*3F","PTNTHPR",158.4,"N",3.3,"N",1.2,"N","3F",5,0,-5.48,0.1,0.86,7.67,8.05,8.05,8.05,68.84,68.84,68.84,13174.41,0.684,0.286,0.114,0.04,0.039,0.116,0.146,0.108,0.209,0.374,0,0,0,0,0,0,17.54951,309.1996,99.66079,247,7.61460216666667,51.9605388333333,1.74998888888889
"1073",2019-11-14 14:37:18,36763,"GPRMC",133714.9,"A",5157.6304,"N",736.87766,"E",7.11,152.9,141119,2,"E","58","PTNTHPR,160.2,N,0.4,N,-1.0,N*19","PTNTHPR",160.2,"N",0.4,"N",-1,"N","19",1,10,-5.57,-0.73,0.89,7.63,8.03,8.03,8.03,68.89,68.89,68.89,12944.79,0.685,0.27,0.141,0.032,0.052,0.116,0.097,0.432,0.627,0,0.8,0,0,6.256,0,0,17.51249,303.4307,99.68018,247,7.61462766666667,51.9605066666667,2.4452
"1074",2019-11-14 14:37:19,36764,"GPRMC",133715.9,"A",5157.6284,"N",736.87924,"E",7.74,154.5,141119,2,"E","51","PTNTHPR,143.0,N,3.9,N,1.6,N*3F","PTNTHPR",143,"N",3.9,"N",1.6,"N","3F",3,0,-5.96,0.11,0.82,7.66,8.02,8.02,8.02,68.89,68.89,68.89,12224.53,0.63,0.277,0.114,0.119,0.118,0.07,0.097,0.324,0.209,1.121,0,0,0,0,0,0,17.47297,301.1341,99.66079,247,7.614654,51.9604733333333,1.9903
"1075",2019-11-14 14:37:20,36765,"GPRMC",133716.8,"A",5157.62671,"N",736.88079,"E",7.54,147.9,141119,2,"E","5D","PTNTHPR,144.3,N,3.8,N,-0.1,N*11","PTNTHPR",144.3,"N",3.8,"N",-0.1,"N","11",5,0,-6.2,-0.63,1.11,7.55,8.02,8.02,8.02,68.95,68.95,68.95,12194.79,0.707,0.239,0.106,0.048,0.078,0.093,0.049,0.54,0.627,0.374,0,0,0,0,0,0,17.42941,309.6631,99.66079,247,7.61467983333333,51.9604451666667,2.71798888888889
"1076",2019-11-14 14:37:21,36766,"GPRMC",133717.8,"A",5157.62484,"N",736.8826,"E",7.6,152.3,141119,2,"E","57","PTNTHPR,139.7,N,3.8,N,2.4,N*35","PTNTHPR",139.7,"N",3.8,"N",2.4,"N","35",1,10,-6.44,-0.15,0.55,7.63,8.01,8.01,8.01,69.03,69.03,69.03,12584.66,0.651,0.268,0.088,0.055,0.052,0.116,0.194,0.216,1.044,0.374,0.8,1.68,0,0,0,0,17.41302,289.359,99.62511,247,7.61471,51.960414,2.55272222222222
"1077",2019-11-14 14:37:22,36767,"GPRMC",133718.8,"A",5157.6229,"N",736.88424,"E",7.56,148.6,141119,2,"E","56","PTNTHPR,141.0,N,3.8,N,-0.3,N*15","PTNTHPR",141,"N",3.8,"N",-0.3,"N","15",3,0,-5.93,-0.62,1.12,7.71,8.02,8.02,8.02,69.06,69.06,69.06,11413.42,0.691,0.275,0.128,0.079,0.052,0.185,0.049,0.432,1.044,0,0,1.68,0,0,0,0,17.51393,282.8206,99.63477,247,7.61473733333333,51.9603816666667,2.4252
"1078",2019-11-14 14:37:23,36768,"GPRMC",133719.9,"A",5157.6206,"N",736.88618,"E",7.58,149.9,141119,2,"E","56","PTNTHPR,138.4,N,4.9,N,1.5,N*33","PTNTHPR",138.4,"N",4.9,"N",1.5,"N","33",5,0,-5.94,-0.92,0.54,7.82,8.02,8.02,8.02,68.97,68.97,68.97,10405.72,0.661,0.249,0.114,0.087,0.052,0.046,0.194,0.432,0.209,0.374,0.8,0,0,0,0,0,17.39968,286.864,99.64444,247,7.61476966666667,51.9603433333333,2.88691111111111
"1079",2019-11-14 14:37:24,36769,"GPRMC",133720.9,"A",5157.6186,"N",736.88811,"E",7.88,148.3,141119,2,"E","56","PTNTHPR,142.1,N,3.8,N,0.2,N*3B","PTNTHPR",142.1,"N",3.8,"N",0.2,"N","3B",1,10,-5.36,-1.83,0.63,7.64,8.02,8.02,8.02,68.79,68.79,68.79,10078.63,0.716,0.253,0.136,0.055,0.065,0.07,0.049,0.216,0.209,0.374,0.8,0,0,0,0,0,17.47453,285.4088,99.63477,247,7.61480183333333,51.96031,4.65507777777778
"1080",2019-11-14 14:37:25,36770,"GPRMC",133721.9,"A",5157.61663,"N",736.88983,"E",8.02,152.1,141119,2,"E","54","PTNTHPR,141.5,N,4.1,N,0.9,N*39","PTNTHPR",141.5,"N",4.1,"N",0.9,"N","39",3,0,-5.46,-0.76,0.13,7.63,8.02,8.02,8.02,68.75,68.75,68.75,8246.602,0.702,0.258,0.097,0.079,0.026,0.116,0.194,0.216,0,0,0.8,0,3.242,0,0,0,17.38317,289.7968,99.67047,247,7.6148305,51.9602771666667,1.91175555555556
"1081",2019-11-14 14:37:26,36771,"GPRMC",133722.9,"A",5157.61465,"N",736.89164,"E",7.74,148,141119,2,"E","57","PTNTHPR,143.4,N,3.2,N,-0.2,N*18","PTNTHPR",143.4,"N",3.2,"N",-0.2,"N","18",5,0,-4.86,-1.01,0.42,7.68,8.01,8.01,8.01,68.64,68.64,68.64,8638.117,0.605,0.218,0.106,0.055,0.052,0.093,0,0.54,0,0.374,0.8,0,0,0,0,0,17.60283,288.3727,99.64444,247,7.61486066666667,51.9602441666667,1.8983
